[{
    "stationsId": "01311",
    "name": "BERGEN",
    "latitude": 60.30,
    "longitude": 5.22,
    "altitude": 50
}, {
    "stationsId": "01338",
    "name": "VANGSNES",
    "latitude": 61.17,
    "longitude": 6.65,
    "altitude": 51
}, {
    "stationsId": "01384",
    "name": "OSLO/GARDERMOEN",
    "latitude": 60.20,
    "longitude": 11.10,
    "altitude": 201
}, {
    "stationsId": "01385",
    "name": "HAMAR-STAVSBERG",
    "latitude": 60.82,
    "longitude": 11.07,
    "altitude": 221
}, {
    "stationsId": "01403",
    "name": "UTSIRA FYR",
    "latitude": 59.32,
    "longitude": 4.87,
    "altitude": 55
}, {
    "stationsId": "01415",
    "name": "STAVANGER",
    "latitude": 58.88,
    "longitude": 5.63,
    "altitude": 9
}, {
    "stationsId": "01452",
    "name": "KRISTIANSAND",
    "latitude": 58.20,
    "longitude": 8.08,
    "altitude": 17
}, {
    "stationsId": "01481",
    "name": "MELSOM",
    "latitude": 59.23,
    "longitude": 10.35,
    "altitude": 26
}, {
    "stationsId": "01488",
    "name": "OSLO/FORNEBU",
    "latitude": 59.90,
    "longitude": 10.62,
    "altitude": 16
}, {
    "stationsId": "01492",
    "name": "OSLO-BLINDERN",
    "latitude": 59.93,
    "longitude": 10.72,
    "altitude": 94
}, {
    "stationsId": "01493",
    "name": "SARPSBORG",
    "latitude": 59.28,
    "longitude": 11.12,
    "altitude": 54
}, {
    "stationsId": "01494",
    "name": "RYGGE",
    "latitude": 59.38,
    "longitude": 10.78,
    "altitude": 53
}, {
    "stationsId": "02418",
    "name": "KARLSTAD",
    "latitude": 59.37,
    "longitude": 13.47,
    "altitude": 46
}, {
    "stationsId": "02458",
    "name": "UPPSALA",
    "latitude": 59.88,
    "longitude": 17.60,
    "altitude": 21
}, {
    "stationsId": "02460",
    "name": "STOCKHOLM/ARLANDA",
    "latitude": 59.65,
    "longitude": 17.92,
    "altitude": 37
}, {
    "stationsId": "02464",
    "name": "STOCKHOLM",
    "latitude": 59.35,
    "longitude": 17.95,
    "altitude": 15
}, {
    "stationsId": "02469",
    "name": "TULLINGE",
    "latitude": 59.18,
    "longitude": 17.92,
    "altitude": 45
}, {
    "stationsId": "02476",
    "name": "FLODA",
    "latitude": 59.07,
    "longitude": 16.38,
    "altitude": 32
}, {
    "stationsId": "02490",
    "name": "SVANBERGA",
    "latitude": 59.83,
    "longitude": 18.63,
    "altitude": 15
}, {
    "stationsId": "02493",
    "name": "SOEDERARM",
    "latitude": 59.75,
    "longitude": 19.42,
    "altitude": 15
}, {
    "stationsId": "02500",
    "name": "NORDKOSTER",
    "latitude": 58.88,
    "longitude": 11.00,
    "altitude": 33
}, {
    "stationsId": "02505",
    "name": "MASESKAR",
    "latitude": 58.08,
    "longitude": 11.33,
    "altitude": 16
}, {
    "stationsId": "02513",
    "name": "GOETEBORG",
    "latitude": 57.70,
    "longitude": 12.00,
    "altitude": 5
}, {
    "stationsId": "02520",
    "name": "SATENAS",
    "latitude": 58.43,
    "longitude": 12.72,
    "altitude": 54
}, {
    "stationsId": "02550",
    "name": "JONKOPING",
    "latitude": 57.77,
    "longitude": 14.08,
    "altitude": 226
}, {
    "stationsId": "02559",
    "name": "GLADHAMMAR",
    "latitude": 57.72,
    "longitude": 16.45,
    "altitude": 35
}, {
    "stationsId": "02562",
    "name": "LINKOPING",
    "latitude": 58.40,
    "longitude": 15.52,
    "altitude": 93
}, {
    "stationsId": "02574",
    "name": "NORRKOPING",
    "latitude": 58.58,
    "longitude": 16.15,
    "altitude": 35
}, {
    "stationsId": "02590",
    "name": "VISBY",
    "latitude": 57.67,
    "longitude": 18.35,
    "altitude": 51
}, {
    "stationsId": "02603",
    "name": "BROEN",
    "latitude": 56.87,
    "longitude": 12.67,
    "altitude": 47
}, {
    "stationsId": "02607",
    "name": "ANGELHOLM",
    "latitude": 56.30,
    "longitude": 12.85,
    "altitude": 20
}, {
    "stationsId": "02611",
    "name": "HELSINGBORG",
    "latitude": 56.03,
    "longitude": 12.77,
    "altitude": 43
}, {
    "stationsId": "02616",
    "name": "FALSTERBO",
    "latitude": 55.38,
    "longitude": 12.82,
    "altitude": 3
}, {
    "stationsId": "02628",
    "name": "HANO",
    "latitude": 56.02,
    "longitude": 14.85,
    "altitude": 60
}, {
    "stationsId": "02635",
    "name": "MALMO",
    "latitude": 55.57,
    "longitude": 13.07,
    "altitude": 20
}, {
    "stationsId": "02636",
    "name": "MALMO/STURUP",
    "latitude": 55.55,
    "longitude": 13.37,
    "altitude": 106
}, {
    "stationsId": "02664",
    "name": "RONNEBY",
    "latitude": 56.27,
    "longitude": 15.28,
    "altitude": 58
}, {
    "stationsId": "02670",
    "name": "KALMAR",
    "latitude": 56.68,
    "longitude": 16.30,
    "altitude": 6
}, {
    "stationsId": "02944",
    "name": "TAMPERE",
    "latitude": 61.42,
    "longitude": 23.58,
    "altitude": 112
}, {
    "stationsId": "02958",
    "name": "LAPPEENRANTA",
    "latitude": 61.05,
    "longitude": 28.20,
    "altitude": 101
}, {
    "stationsId": "02965",
    "name": "LAHTI",
    "latitude": 60.97,
    "longitude": 25.63,
    "altitude": 83
}, {
    "stationsId": "02966",
    "name": "UTTI",
    "latitude": 60.90,
    "longitude": 26.93,
    "altitude": 100
}, {
    "stationsId": "02974",
    "name": "HELSINKI/VANTAA",
    "latitude": 60.32,
    "longitude": 24.97,
    "altitude": 51
}, {
    "stationsId": "02982",
    "name": "HANKO",
    "latitude": 59.77,
    "longitude": 22.95,
    "altitude": 5
}, {
    "stationsId": "03005",
    "name": "LERWICK",
    "latitude": 60.13,
    "longitude": -1.18,
    "altitude": 82
}, {
    "stationsId": "03017",
    "name": "KIRKWALL",
    "latitude": 58.95,
    "longitude": -2.90,
    "altitude": 26
}, {
    "stationsId": "03026",
    "name": "STORNOWAY",
    "latitude": 58.22,
    "longitude": -6.32,
    "altitude": 9
}, {
    "stationsId": "03041",
    "name": "AONACH MOR",
    "latitude": 56.82,
    "longitude": -4.97,
    "altitude": 1130
}, {
    "stationsId": "03044",
    "name": "ALTNAHARRA",
    "latitude": 58.28,
    "longitude": -4.43,
    "altitude": 81
}, {
    "stationsId": "03063",
    "name": "AVIEMORE",
    "latitude": 57.22,
    "longitude": -3.83,
    "altitude": 228
}, {
    "stationsId": "03065",
    "name": "CAIRNGORM",
    "latitude": 57.12,
    "longitude": -3.63,
    "altitude": 1245
}, {
    "stationsId": "03066",
    "name": "KINLOSS",
    "latitude": 57.65,
    "longitude": -3.57,
    "altitude": 6
}, {
    "stationsId": "03068",
    "name": "LOSSIEMOUTH",
    "latitude": 57.72,
    "longitude": -3.32,
    "altitude": 13
}, {
    "stationsId": "03075",
    "name": "WICK",
    "latitude": 58.45,
    "longitude": -3.08,
    "altitude": 39
}, {
    "stationsId": "03091",
    "name": "ABERDEEN",
    "latitude": 57.20,
    "longitude": -2.22,
    "altitude": 65
}, {
    "stationsId": "03100",
    "name": "TIREE",
    "latitude": 56.50,
    "longitude": -6.88,
    "altitude": 12
}, {
    "stationsId": "03132",
    "name": "WEST FREUGH",
    "latitude": 54.87,
    "longitude": -4.93,
    "altitude": 11
}, {
    "stationsId": "03136",
    "name": "PRESTWICK/RNAS",
    "latitude": 55.52,
    "longitude": -4.58,
    "altitude": 26
}, {
    "stationsId": "03158",
    "name": "CHARTERHALL",
    "latitude": 55.72,
    "longitude": -2.38,
    "altitude": 112
}, {
    "stationsId": "03162",
    "name": "ESKDALEMUIR",
    "latitude": 55.32,
    "longitude": -3.20,
    "altitude": 242
}, {
    "stationsId": "03171",
    "name": "LEUCHARS",
    "latitude": 56.38,
    "longitude": -2.87,
    "altitude": 12
}, {
    "stationsId": "03204",
    "name": "ISLE OF MAN/ROUAL.",
    "latitude": 54.08,
    "longitude": -4.63,
    "altitude": 17
}, {
    "stationsId": "03220",
    "name": "CARLISLE",
    "latitude": 54.93,
    "longitude": -2.97,
    "altitude": 28
}, {
    "stationsId": "03257",
    "name": "LEEMING",
    "latitude": 54.30,
    "longitude": -1.53,
    "altitude": 40
}, {
    "stationsId": "03261",
    "name": "DISHFORTH AIRFIELD",
    "latitude": 54.13,
    "longitude": -1.42,
    "altitude": 36
}, {
    "stationsId": "03265",
    "name": "TOPCLIFFE",
    "latitude": 54.20,
    "longitude": -1.38,
    "altitude": 25
}, {
    "stationsId": "03266",
    "name": "LINTON-ON-OUSE",
    "latitude": 54.05,
    "longitude": -1.25,
    "altitude": 16
}, {
    "stationsId": "03275",
    "name": "LOFTUS SAMOS",
    "latitude": 54.33,
    "longitude": -0.52,
    "altitude": 158
}, {
    "stationsId": "03292",
    "name": "BRIDLINGTON",
    "latitude": 54.08,
    "longitude": -0.18,
    "altitude": 15
}, {
    "stationsId": "03302",
    "name": "VALLEY",
    "latitude": 53.25,
    "longitude": -4.53,
    "altitude": 11
}, {
    "stationsId": "03313",
    "name": "RHYL",
    "latitude": 53.27,
    "longitude": -3.52,
    "altitude": 77
}, {
    "stationsId": "03318",
    "name": "BLACKPOOL",
    "latitude": 53.77,
    "longitude": -3.03,
    "altitude": 10
}, {
    "stationsId": "03321",
    "name": "HAWARDEN",
    "latitude": 53.17,
    "longitude": -2.98,
    "altitude": 10
}, {
    "stationsId": "03354",
    "name": "NOTTINGHAM/MET",
    "latitude": 53.00,
    "longitude": -1.25,
    "altitude": 117
}, {
    "stationsId": "03377",
    "name": "WADDINGTON",
    "latitude": 53.17,
    "longitude": 0.52,
    "altitude": 68
}, {
    "stationsId": "03379",
    "name": "CRANWELL",
    "latitude": 53.03,
    "longitude": -0.50,
    "altitude": 67
}, {
    "stationsId": "03385",
    "name": "DONNA NOOK",
    "latitude": 53.48,
    "longitude": 0.08,
    "altitude": 8
}, {
    "stationsId": "03405",
    "name": "ABERDARON",
    "latitude": 52.78,
    "longitude": -4.73,
    "altitude": 95
}, {
    "stationsId": "03414",
    "name": "SHAWBURY",
    "latitude": 52.80,
    "longitude": -2.67,
    "altitude": 76
}, {
    "stationsId": "03462",
    "name": "WITTERING",
    "latitude": 52.62,
    "longitude": -0.47,
    "altitude": 84
}, {
    "stationsId": "03482",
    "name": "MARHAM",
    "latitude": 52.65,
    "longitude": 0.57,
    "altitude": 23
}, {
    "stationsId": "03502",
    "name": "ABERPORTH",
    "latitude": 52.13,
    "longitude": -4.57,
    "altitude": 133
}, {
    "stationsId": "03503",
    "name": "TRAWSCOED",
    "latitude": 52.33,
    "longitude": -3.95,
    "altitude": 63
}, {
    "stationsId": "03520",
    "name": "SHOBDON",
    "latitude": 52.25,
    "longitude": -2.88,
    "altitude": 99
}, {
    "stationsId": "03560",
    "name": "BEDFORD",
    "latitude": 52.22,
    "longitude": -0.48,
    "altitude": 85
}, {
    "stationsId": "03590",
    "name": "WATTISHAM",
    "latitude": 52.12,
    "longitude": 0.97,
    "altitude": 87
}, {
    "stationsId": "03604",
    "name": "MILFORD HAVEN",
    "latitude": 51.72,
    "longitude": -5.05,
    "altitude": 44
}, {
    "stationsId": "03628",
    "name": "BRISTOL/FILTON",
    "latitude": 51.52,
    "longitude": -2.58,
    "altitude": 59
}, {
    "stationsId": "03647",
    "name": "LITTLE RISSINGTON",
    "latitude": 51.87,
    "longitude": -1.68,
    "altitude": 215
}, {
    "stationsId": "03649",
    "name": "BRIZE NORTON",
    "latitude": 51.75,
    "longitude": -1.58,
    "altitude": 88
}, {
    "stationsId": "03672",
    "name": "NORTHOLT",
    "latitude": 51.55,
    "longitude": -0.42,
    "altitude": 38
}, {
    "stationsId": "03707",
    "name": "CHIVENOR",
    "latitude": 51.08,
    "longitude": -4.15,
    "altitude": 6
}, {
    "stationsId": "03740",
    "name": "LYNEHAM",
    "latitude": 51.50,
    "longitude": -1.98,
    "altitude": 145
}, {
    "stationsId": "03743",
    "name": "LARKHILL",
    "latitude": 51.20,
    "longitude": -1.82,
    "altitude": 132
}, {
    "stationsId": "03768",
    "name": "FARNBOROUGH",
    "latitude": 51.28,
    "longitude": 0.77,
    "altitude": 65
}, {
    "stationsId": "03772",
    "name": "LONDON",
    "latitude": 51.48,
    "longitude": -0.45,
    "altitude": 24
}, {
    "stationsId": "03781",
    "name": "KENLEY",
    "latitude": 51.30,
    "longitude": -0.08,
    "altitude": 170
}, {
    "stationsId": "03797",
    "name": "MANSTON",
    "latitude": 51.35,
    "longitude": 1.35,
    "altitude": 44
}, {
    "stationsId": "03803",
    "name": "SCILLY",
    "latitude": 49.92,
    "longitude": -6.30,
    "altitude": 31
}, {
    "stationsId": "03808",
    "name": "CAMBORNE",
    "latitude": 50.22,
    "longitude": -5.33,
    "altitude": 87
}, {
    "stationsId": "03809",
    "name": "CULDROSE",
    "latitude": 50.08,
    "longitude": -5.25,
    "altitude": 78
}, {
    "stationsId": "03827",
    "name": "PLYMOUTH",
    "latitude": 50.35,
    "longitude": -4.12,
    "altitude": 50
}, {
    "stationsId": "03839",
    "name": "EXETER APT",
    "latitude": 50.73,
    "longitude": -3.42,
    "altitude": 31
}, {
    "stationsId": "03853",
    "name": "YEOVILTON",
    "latitude": 51.02,
    "longitude": -2.63,
    "altitude": 23
}, {
    "stationsId": "03862",
    "name": "BOURNEMOUTH/HURN",
    "latitude": 50.78,
    "longitude": -1.83,
    "altitude": 11
}, {
    "stationsId": "03866",
    "name": "ST. CATHERINE'S POINT",
    "latitude": 50.58,
    "longitude": -1.30,
    "altitude": 16
}, {
    "stationsId": "03882",
    "name": "HERSTMONCEUX",
    "latitude": 50.88,
    "longitude": 0.32,
    "altitude": 52
}, {
    "stationsId": "03894",
    "name": "GUERNSEY",
    "latitude": 49.43,
    "longitude": -2.60,
    "altitude": 101
}, {
    "stationsId": "03895",
    "name": "JERSEY-AIRPORT",
    "latitude": 49.22,
    "longitude": -2.20,
    "altitude": 84
}, {
    "stationsId": "03917",
    "name": "BELFAST",
    "latitude": 54.65,
    "longitude": -6.22,
    "altitude": 81
}, {
    "stationsId": "03953",
    "name": "VALENTIA",
    "latitude": 51.93,
    "longitude": -10.23,
    "altitude": 25
}, {
    "stationsId": "03955",
    "name": "CORK AIRPORT",
    "latitude": 51.85,
    "longitude": -8.48,
    "altitude": 153
}, {
    "stationsId": "03961",
    "name": "CARLOW OAK PARK",
    "latitude": 52.85,
    "longitude": -6.92,
    "altitude": 61
}, {
    "stationsId": "03962",
    "name": "SHANNON",
    "latitude": 52.70,
    "longitude": -8.92,
    "altitude": 14
}, {
    "stationsId": "03969",
    "name": "DUBLIN",
    "latitude": 53.43,
    "longitude": -6.25,
    "altitude": 68
}, {
    "stationsId": "03971",
    "name": "MULLINGAR",
    "latitude": 53.53,
    "longitude": -7.37,
    "altitude": 100
}, {
    "stationsId": "03976",
    "name": "BELMULLET",
    "latitude": 54.23,
    "longitude": -10.02,
    "altitude": 9
}, {
    "stationsId": "03980",
    "name": "MALIN HEAD",
    "latitude": 55.37,
    "longitude": -7.33,
    "altitude": 20
}, {
    "stationsId": "06030",
    "name": "ALBORG",
    "latitude": 57.10,
    "longitude": 9.87,
    "altitude": 3
}, {
    "stationsId": "06041",
    "name": "SKAGEN",
    "latitude": 57.77,
    "longitude": 10.65,
    "altitude": 3
}, {
    "stationsId": "06052",
    "name": "THYBORON",
    "latitude": 56.72,
    "longitude": 8.22,
    "altitude": 2
}, {
    "stationsId": "06060",
    "name": "KARUP",
    "latitude": 56.30,
    "longitude": 9.12,
    "altitude": 52
}, {
    "stationsId": "06070",
    "name": "TIRSTRUP",
    "latitude": 56.30,
    "longitude": 10.62,
    "altitude": 25
}, {
    "stationsId": "06080",
    "name": "ESBJERG",
    "latitude": 55.52,
    "longitude": 8.55,
    "altitude": 29
}, {
    "stationsId": "06104",
    "name": "BILLUND",
    "latitude": 55.73,
    "longitude": 9.15,
    "altitude": 70
}, {
    "stationsId": "06110",
    "name": "SKRYDSTRUP",
    "latitude": 55.23,
    "longitude": 9.27,
    "altitude": 43
}, {
    "stationsId": "06119",
    "name": "KEGNAES",
    "latitude": 54.85,
    "longitude": 9.98,
    "altitude": 17
}, {
    "stationsId": "06120",
    "name": "ODENSE",
    "latitude": 55.47,
    "longitude": 10.33,
    "altitude": 17
}, {
    "stationsId": "06141",
    "name": "ABED",
    "latitude": 54.83,
    "longitude": 11.33,
    "altitude": 8
}, {
    "stationsId": "06147",
    "name": "VINDEBAEK KYST",
    "latitude": 54.88,
    "longitude": 12.18,
    "altitude": 3
}, {
    "stationsId": "06169",
    "name": "GNIBEN",
    "latitude": 56.02,
    "longitude": 11.28,
    "altitude": 14
}, {
    "stationsId": "06170",
    "name": "KOEBENHAVN/ROSKILDE",
    "latitude": 55.58,
    "longitude": 12.13,
    "altitude": 44
}, {
    "stationsId": "06180",
    "name": "KOPENHAGEN",
    "latitude": 55.63,
    "longitude": 12.67,
    "altitude": 5
}, {
    "stationsId": "06190",
    "name": "ROENNE/BORNH.",
    "latitude": 55.07,
    "longitude": 14.75,
    "altitude": 16
}, {
    "stationsId": "06210",
    "name": "VALKENBURG",
    "latitude": 52.18,
    "longitude": 4.42,
    "altitude": 0
}, {
    "stationsId": "06235",
    "name": "KOOY",
    "latitude": 52.92,
    "longitude": 4.78,
    "altitude": 0
}, {
    "stationsId": "06240",
    "name": "AMSTERDAM",
    "latitude": 52.30,
    "longitude": 4.77,
    "altitude": -4
}, {
    "stationsId": "06242",
    "name": "VLIELAND",
    "latitude": 53.25,
    "longitude": 4.92,
    "altitude": 11
}, {
    "stationsId": "06260",
    "name": "DE BILT",
    "latitude": 52.10,
    "longitude": 5.18,
    "altitude": 2
}, {
    "stationsId": "06270",
    "name": "LEEUWARDEN",
    "latitude": 53.22,
    "longitude": 5.77,
    "altitude": 1
}, {
    "stationsId": "06275",
    "name": "DEELEN",
    "latitude": 52.07,
    "longitude": 5.88,
    "altitude": 48
}, {
    "stationsId": "06279",
    "name": "HOOGEVEEN",
    "latitude": 52.73,
    "longitude": 6.52,
    "altitude": 12
}, {
    "stationsId": "06280",
    "name": "GRONINGEN",
    "latitude": 53.13,
    "longitude": 6.58,
    "altitude": 4
}, {
    "stationsId": "06290",
    "name": "TWENTHE",
    "latitude": 52.27,
    "longitude": 6.90,
    "altitude": 35
}, {
    "stationsId": "06310",
    "name": "VLISSINGEN",
    "latitude": 51.43,
    "longitude": 3.60,
    "altitude": 8
}, {
    "stationsId": "06330",
    "name": "HOEK V.HOLL.",
    "latitude": 51.98,
    "longitude": 4.12,
    "altitude": 12
}, {
    "stationsId": "06344",
    "name": "ROTTERDAM",
    "latitude": 51.95,
    "longitude": 4.45,
    "altitude": -5
}, {
    "stationsId": "06350",
    "name": "GILZE RIJEN",
    "latitude": 51.57,
    "longitude": 4.93,
    "altitude": 11
}, {
    "stationsId": "06370",
    "name": "EINDHOVEN",
    "latitude": 51.45,
    "longitude": 5.42,
    "altitude": 23
}, {
    "stationsId": "06375",
    "name": "VOLKEL",
    "latitude": 51.65,
    "longitude": 5.70,
    "altitude": 22
}, {
    "stationsId": "06380",
    "name": "MAASTRICHT",
    "latitude": 50.92,
    "longitude": 5.78,
    "altitude": 114
}, {
    "stationsId": "06407",
    "name": "OOSTENDE",
    "latitude": 51.20,
    "longitude": 2.87,
    "altitude": 4
}, {
    "stationsId": "06431",
    "name": "GENT",
    "latitude": 51.18,
    "longitude": 3.82,
    "altitude": 10
}, {
    "stationsId": "06449",
    "name": "CHARLEROI",
    "latitude": 50.47,
    "longitude": 4.45,
    "altitude": 187
}, {
    "stationsId": "06450",
    "name": "ANTWERPEN",
    "latitude": 51.20,
    "longitude": 4.47,
    "altitude": 12
}, {
    "stationsId": "06451",
    "name": "BRUESSEL",
    "latitude": 50.90,
    "longitude": 4.53,
    "altitude": 55
}, {
    "stationsId": "06456",
    "name": "FLORENNES",
    "latitude": 50.23,
    "longitude": 4.67,
    "altitude": 279
}, {
    "stationsId": "06458",
    "name": "BEAUVECHAIN",
    "latitude": 50.75,
    "longitude": 4.77,
    "altitude": 105
}, {
    "stationsId": "06476",
    "name": "ST.HUBERT",
    "latitude": 50.03,
    "longitude": 5.40,
    "altitude": 563
}, {
    "stationsId": "06478",
    "name": "BIERSET",
    "latitude": 50.65,
    "longitude": 5.45,
    "altitude": 178
}, {
    "stationsId": "06479",
    "name": "KLEINE BROGEL",
    "latitude": 51.17,
    "longitude": 5.47,
    "altitude": 55
}, {
    "stationsId": "06490",
    "name": "SPA/LA SAUVENIERE",
    "latitude": 50.48,
    "longitude": 5.92,
    "altitude": 470
}, {
    "stationsId": "06496",
    "name": "ELSENBORN",
    "latitude": 50.47,
    "longitude": 6.18,
    "altitude": 564
}, {
    "stationsId": "06590",
    "name": "LUXEMBURG",
    "latitude": 49.62,
    "longitude": 6.22,
    "altitude": 376
}, {
    "stationsId": "06601",
    "name": "BASEL",
    "latitude": 47.53,
    "longitude": 7.58,
    "altitude": 316
}, {
    "stationsId": "06604",
    "name": "NEUCHATEL",
    "latitude": 47.00,
    "longitude": 6.95,
    "altitude": 485
}, {
    "stationsId": "06605",
    "name": "CHASSERAL",
    "latitude": 47.13,
    "longitude": 7.05,
    "altitude": 1599
}, {
    "stationsId": "06606",
    "name": "CRESSIER",
    "latitude": 47.05,
    "longitude": 7.07,
    "altitude": 431
}, {
    "stationsId": "06609",
    "name": "MOLESON",
    "latitude": 46.55,
    "longitude": 7.02,
    "altitude": 1972
}, {
    "stationsId": "06610",
    "name": "PAYERNE",
    "latitude": 46.82,
    "longitude": 6.93,
    "altitude": 490
}, {
    "stationsId": "06612",
    "name": "LA CHAUX DE FONDS",
    "latitude": 47.08,
    "longitude": 6.80,
    "altitude": 1018
}, {
    "stationsId": "06616",
    "name": "FAHY",
    "latitude": 47.42,
    "longitude": 6.93,
    "altitude": 596
}, {
    "stationsId": "06619",
    "name": "LA FRETAZ",
    "latitude": 46.83,
    "longitude": 6.58,
    "altitude": 1202
}, {
    "stationsId": "06620",
    "name": "SCHAFFHAUSEN",
    "latitude": 47.68,
    "longitude": 8.62,
    "altitude": 437
}, {
    "stationsId": "06621",
    "name": "GUETTINGEN",
    "latitude": 47.60,
    "longitude": 9.28,
    "altitude": 440
}, {
    "stationsId": "06623",
    "name": "SALEN-REUTENEN",
    "latitude": 47.65,
    "longitude": 9.02,
    "altitude": 718
}, {
    "stationsId": "06624",
    "name": "HALLAU",
    "latitude": 47.70,
    "longitude": 8.47,
    "altitude": 419
}, {
    "stationsId": "06625",
    "name": "FRIBOURG POSIEUX",
    "latitude": 46.77,
    "longitude": 7.12,
    "altitude": 646
}, {
    "stationsId": "06626",
    "name": "GOESGEN (KKW)",
    "latitude": 47.37,
    "longitude": 7.97,
    "altitude": 380
}, {
    "stationsId": "06628",
    "name": "PLAFFEIEN-OBERSCH.",
    "latitude": 46.75,
    "longitude": 7.27,
    "altitude": 1042
}, {
    "stationsId": "06631",
    "name": "BERN-LIEBEFELD",
    "latitude": 46.93,
    "longitude": 7.42,
    "altitude": 565
}, {
    "stationsId": "06632",
    "name": "GRENCHEN",
    "latitude": 47.18,
    "longitude": 7.42,
    "altitude": 430
}, {
    "stationsId": "06633",
    "name": "BUCHS-SUHR",
    "latitude": 47.38,
    "longitude": 8.08,
    "altitude": 387
}, {
    "stationsId": "06635",
    "name": "KOPPIGEN",
    "latitude": 47.12,
    "longitude": 7.62,
    "altitude": 484
}, {
    "stationsId": "06636",
    "name": "MUEHLEBERG (KKW)",
    "latitude": 46.97,
    "longitude": 7.28,
    "altitude": 480
}, {
    "stationsId": "06637",
    "name": "MEIRINGEN",
    "latitude": 46.73,
    "longitude": 8.12,
    "altitude": 589
}, {
    "stationsId": "06638",
    "name": "LANGNAU I.E.",
    "latitude": 46.93,
    "longitude": 7.82,
    "altitude": 745
}, {
    "stationsId": "06639",
    "name": "NAPF",
    "latitude": 47.00,
    "longitude": 7.93,
    "altitude": 1406
}, {
    "stationsId": "06641",
    "name": "MOEHLIN",
    "latitude": 47.57,
    "longitude": 7.88,
    "altitude": 344
}, {
    "stationsId": "06643",
    "name": "WYNAU",
    "latitude": 47.27,
    "longitude": 7.78,
    "altitude": 422
}, {
    "stationsId": "06645",
    "name": "RUENENBERG",
    "latitude": 47.43,
    "longitude": 7.88,
    "altitude": 611
}, {
    "stationsId": "06646",
    "name": "BEZNAU",
    "latitude": 47.57,
    "longitude": 8.23,
    "altitude": 326
}, {
    "stationsId": "06648",
    "name": "EGOLZWIL",
    "latitude": 47.18,
    "longitude": 8.00,
    "altitude": 521
}, {
    "stationsId": "06650",
    "name": "LUZERN",
    "latitude": 47.02,
    "longitude": 8.30,
    "altitude": 456
}, {
    "stationsId": "06651",
    "name": "SCHUEPFHEIM",
    "latitude": 46.95,
    "longitude": 8.02,
    "altitude": 742
}, {
    "stationsId": "06655",
    "name": "ENGELBERG",
    "latitude": 46.82,
    "longitude": 8.42,
    "altitude": 1036
}, {
    "stationsId": "06657",
    "name": "GISWIL",
    "latitude": 46.95,
    "longitude": 8.18,
    "altitude": 475
}, {
    "stationsId": "06659",
    "name": "PILATUS",
    "latitude": 46.98,
    "longitude": 8.25,
    "altitude": 2106
}, {
    "stationsId": "06660",
    "name": "ZUERICH (TOWN/VILLE)",
    "latitude": 47.38,
    "longitude": 8.57,
    "altitude": 556
}, {
    "stationsId": "06664",
    "name": "RECKENHOLZ",
    "latitude": 47.43,
    "longitude": 8.52,
    "altitude": 444
}, {
    "stationsId": "06666",
    "name": "LEIBSTADT (KKW)",
    "latitude": 47.60,
    "longitude": 8.18,
    "altitude": 341
}, {
    "stationsId": "06669",
    "name": "LAEGERN",
    "latitude": 47.48,
    "longitude": 8.40,
    "altitude": 868
}, {
    "stationsId": "06670",
    "name": "ZUERICH",
    "latitude": 47.48,
    "longitude": 8.53,
    "altitude": 436
}, {
    "stationsId": "06672",
    "name": "ALTDORF",
    "latitude": 46.87,
    "longitude": 8.63,
    "altitude": 449
}, {
    "stationsId": "06673",
    "name": "WAEDENSwl",
    "latitude": 47.22,
    "longitude": 8.68,
    "altitude": 463
}, {
    "stationsId": "06674",
    "name": "CHAM",
    "latitude": 47.18,
    "longitude": 8.47,
    "altitude": 443
}, {
    "stationsId": "06675",
    "name": "EINSIEDELN",
    "latitude": 47.13,
    "longitude": 8.77,
    "altitude": 910
}, {
    "stationsId": "06676",
    "name": "OBERAEGERI",
    "latitude": 47.13,
    "longitude": 8.62,
    "altitude": 724
}, {
    "stationsId": "06679",
    "name": "TAENIKON",
    "latitude": 47.47,
    "longitude": 8.90,
    "altitude": 536
}, {
    "stationsId": "06680",
    "name": "SAENTIS",
    "latitude": 47.25,
    "longitude": 9.33,
    "altitude": 2502
}, {
    "stationsId": "06681",
    "name": "ST.GALLEN",
    "latitude": 47.43,
    "longitude": 9.40,
    "altitude": 779
}, {
    "stationsId": "06682",
    "name": "ELM",
    "latitude": 46.92,
    "longitude": 9.18,
    "altitude": 958
}, {
    "stationsId": "06683",
    "name": "SCHMERIKON",
    "latitude": 47.22,
    "longitude": 8.93,
    "altitude": 408
}, {
    "stationsId": "06685",
    "name": "GLARUS",
    "latitude": 47.03,
    "longitude": 9.07,
    "altitude": 515
}, {
    "stationsId": "06687",
    "name": "QUINTEN",
    "latitude": 47.13,
    "longitude": 9.22,
    "altitude": 419
}, {
    "stationsId": "06688",
    "name": "CRAP MASEGN",
    "latitude": 46.83,
    "longitude": 9.18,
    "altitude": 2480
}, {
    "stationsId": "06689",
    "name": "HOERNLI",
    "latitude": 47.37,
    "longitude": 8.93,
    "altitude": 1144
}, {
    "stationsId": "06690",
    "name": "ALTENRHEIN",
    "latitude": 47.48,
    "longitude": 9.57,
    "altitude": 398
}, {
    "stationsId": "06693",
    "name": "EBNAT-KAPPEL",
    "latitude": 47.27,
    "longitude": 9.12,
    "altitude": 623
}, {
    "stationsId": "06700",
    "name": "GENF",
    "latitude": 46.25,
    "longitude": 6.13,
    "altitude": 420
}, {
    "stationsId": "06702",
    "name": "LA DOLE",
    "latitude": 46.42,
    "longitude": 6.10,
    "altitude": 1670
}, {
    "stationsId": "06704",
    "name": "BIERE",
    "latitude": 46.53,
    "longitude": 6.33,
    "altitude": 684
}, {
    "stationsId": "06705",
    "name": "CHANGINS",
    "latitude": 46.40,
    "longitude": 6.23,
    "altitude": 430
}, {
    "stationsId": "06711",
    "name": "PULLY",
    "latitude": 46.52,
    "longitude": 6.67,
    "altitude": 461
}, {
    "stationsId": "06712",
    "name": "AIGLE",
    "latitude": 46.33,
    "longitude": 6.92,
    "altitude": 381
}, {
    "stationsId": "06717",
    "name": "GRAND-ST-BERNARD",
    "latitude": 45.87,
    "longitude": 7.17,
    "altitude": 2472
}, {
    "stationsId": "06720",
    "name": "SION",
    "latitude": 46.22,
    "longitude": 7.33,
    "altitude": 482
}, {
    "stationsId": "06722",
    "name": "EVOLENE-VILLAZ",
    "latitude": 46.12,
    "longitude": 7.52,
    "altitude": 1825
}, {
    "stationsId": "06724",
    "name": "MONTANA",
    "latitude": 46.32,
    "longitude": 7.48,
    "altitude": 1508
}, {
    "stationsId": "06727",
    "name": "VISP",
    "latitude": 46.30,
    "longitude": 7.83,
    "altitude": 639
}, {
    "stationsId": "06730",
    "name": "JUNGFRAUJOCH",
    "latitude": 46.48,
    "longitude": 8.03,
    "altitude": 3580
}, {
    "stationsId": "06734",
    "name": "INTERLAKEN",
    "latitude": 46.67,
    "longitude": 7.87,
    "altitude": 580
}, {
    "stationsId": "06735",
    "name": "ADELBODEN",
    "latitude": 46.50,
    "longitude": 7.57,
    "altitude": 1320
}, {
    "stationsId": "06744",
    "name": "GRIMSEL-HOSPIZ",
    "latitude": 46.57,
    "longitude": 8.33,
    "altitude": 1980
}, {
    "stationsId": "06745",
    "name": "ULRICHEN",
    "latitude": 46.50,
    "longitude": 8.32,
    "altitude": 1346
}, {
    "stationsId": "06748",
    "name": "ZERMATT",
    "latitude": 46.03,
    "longitude": 7.75,
    "altitude": 1638
}, {
    "stationsId": "06750",
    "name": "GUETSCH",
    "latitude": 46.65,
    "longitude": 8.62,
    "altitude": 2287
}, {
    "stationsId": "06751",
    "name": "ROBIEI",
    "latitude": 46.45,
    "longitude": 8.52,
    "altitude": 1898
}, {
    "stationsId": "06753",
    "name": "PIOTTA",
    "latitude": 46.52,
    "longitude": 8.68,
    "altitude": 1007
}, {
    "stationsId": "06756",
    "name": "COMPROVASCO",
    "latitude": 46.47,
    "longitude": 8.93,
    "altitude": 575
}, {
    "stationsId": "06759",
    "name": "CIMETTA",
    "latitude": 46.20,
    "longitude": 8.80,
    "altitude": 1672
}, {
    "stationsId": "06760",
    "name": "LOCARNO-MONTI",
    "latitude": 46.17,
    "longitude": 8.78,
    "altitude": 367
}, {
    "stationsId": "06762",
    "name": "LOCARNO",
    "latitude": 46.17,
    "longitude": 8.88,
    "altitude": 197
}, {
    "stationsId": "06770",
    "name": "LUGANO",
    "latitude": 46.00,
    "longitude": 8.97,
    "altitude": 273
}, {
    "stationsId": "06771",
    "name": "STABIO",
    "latitude": 45.83,
    "longitude": 8.93,
    "altitude": 353
}, {
    "stationsId": "06778",
    "name": "BUFFALORA",
    "latitude": 46.65,
    "longitude": 10.27,
    "altitude": 1968
}, {
    "stationsId": "06780",
    "name": "WEISSFLUHJOCH",
    "latitude": 46.83,
    "longitude": 9.82,
    "altitude": 2691
}, {
    "stationsId": "06782",
    "name": "DISENTIS",
    "latitude": 46.70,
    "longitude": 8.85,
    "altitude": 1190
}, {
    "stationsId": "06783",
    "name": "SAN BERNARDINO",
    "latitude": 46.47,
    "longitude": 9.18,
    "altitude": 1639
}, {
    "stationsId": "06784",
    "name": "DAVOS",
    "latitude": 46.82,
    "longitude": 9.85,
    "altitude": 1590
}, {
    "stationsId": "06786",
    "name": "CHUR",
    "latitude": 46.87,
    "longitude": 9.53,
    "altitude": 556
}, {
    "stationsId": "06787",
    "name": "ANDEER",
    "latitude": 46.62,
    "longitude": 9.42,
    "altitude": 989
}, {
    "stationsId": "06788",
    "name": "HINTERRHEIN",
    "latitude": 46.52,
    "longitude": 9.18,
    "altitude": 1611
}, {
    "stationsId": "06791",
    "name": "CORVATSCH",
    "latitude": 46.42,
    "longitude": 9.82,
    "altitude": 3315
}, {
    "stationsId": "06792",
    "name": "SAMEDAN",
    "latitude": 46.53,
    "longitude": 9.88,
    "altitude": 1709
}, {
    "stationsId": "06793",
    "name": "VALBELLA",
    "latitude": 46.77,
    "longitude": 9.55,
    "altitude": 1569
}, {
    "stationsId": "06794",
    "name": "ROBBIA",
    "latitude": 46.35,
    "longitude": 10.07,
    "altitude": 1078
}, {
    "stationsId": "06795",
    "name": "PIZ MARTEGNAS",
    "latitude": 46.58,
    "longitude": 9.53,
    "altitude": 2670
}, {
    "stationsId": "06796",
    "name": "STA. MARIA VAL MUEST",
    "latitude": 46.60,
    "longitude": 10.43,
    "altitude": 1383
}, {
    "stationsId": "06798",
    "name": "SCOULS",
    "latitude": 46.80,
    "longitude": 10.27,
    "altitude": 1298
}, {
    "stationsId": "06799",
    "name": "NALUNS / SCHLIVERA",
    "latitude": 46.82,
    "longitude": 10.27,
    "altitude": 2400
}, {
    "stationsId": "06990",
    "name": "VADUZ FL.",
    "latitude": 47.13,
    "longitude": 9.52,
    "altitude": 460
}, {
    "stationsId": "07002",
    "name": "BOULOGNE",
    "latitude": 50.73,
    "longitude": 1.60,
    "altitude": 70
}, {
    "stationsId": "07005",
    "name": "ABBEVILLE",
    "latitude": 50.13,
    "longitude": 1.83,
    "altitude": 70
}, {
    "stationsId": "07015",
    "name": "LILLE",
    "latitude": 50.57,
    "longitude": 3.10,
    "altitude": 48
}, {
    "stationsId": "07020",
    "name": "LA HAGUE",
    "latitude": 49.72,
    "longitude": -1.93,
    "altitude": 3
}, {
    "stationsId": "07024",
    "name": "CHERBOURG",
    "latitude": 49.65,
    "longitude": -1.47,
    "altitude": 139
}, {
    "stationsId": "07027",
    "name": "CAEN",
    "latitude": 49.18,
    "longitude": -0.45,
    "altitude": 67
}, {
    "stationsId": "07028",
    "name": "LA HEVE",
    "latitude": 49.52,
    "longitude": 0.07,
    "altitude": 100
}, {
    "stationsId": "07037",
    "name": "ROUEN",
    "latitude": 49.38,
    "longitude": 1.18,
    "altitude": 157
}, {
    "stationsId": "07038",
    "name": "EVREUX",
    "latitude": 49.02,
    "longitude": 1.22,
    "altitude": 132
}, {
    "stationsId": "07040",
    "name": "DIEPPE",
    "latitude": 49.93,
    "longitude": 1.10,
    "altitude": 33
}, {
    "stationsId": "07055",
    "name": "BEAUVAIS",
    "latitude": 49.47,
    "longitude": 2.12,
    "altitude": 106
}, {
    "stationsId": "07061",
    "name": "SAINT-QUENTIN",
    "latitude": 49.82,
    "longitude": 3.20,
    "altitude": 98
}, {
    "stationsId": "07075",
    "name": "CHARLEVILLE",
    "latitude": 49.78,
    "longitude": 4.63,
    "altitude": 149
}, {
    "stationsId": "07100",
    "name": "OUESSANT",
    "latitude": 48.47,
    "longitude": -5.13,
    "altitude": 35
}, {
    "stationsId": "07110",
    "name": "BREST",
    "latitude": 48.45,
    "longitude": -4.42,
    "altitude": 99
}, {
    "stationsId": "07120",
    "name": "ST.BRIEUC",
    "latitude": 48.53,
    "longitude": -2.85,
    "altitude": 136
}, {
    "stationsId": "07125",
    "name": "DINARD APT",
    "latitude": 48.58,
    "longitude": -2.07,
    "altitude": 58
}, {
    "stationsId": "07130",
    "name": "RENNES",
    "latitude": 48.07,
    "longitude": -1.73,
    "altitude": 37
}, {
    "stationsId": "07133",
    "name": "POINTE DU ROC",
    "latitude": 48.83,
    "longitude": -1.62,
    "altitude": 37
}, {
    "stationsId": "07139",
    "name": "ALENCON",
    "latitude": 48.43,
    "longitude": 0.10,
    "altitude": 144
}, {
    "stationsId": "07143",
    "name": "CHARTRES",
    "latitude": 48.47,
    "longitude": 1.52,
    "altitude": 155
}, {
    "stationsId": "07149",
    "name": "PARIS",
    "latitude": 48.73,
    "longitude": 2.40,
    "altitude": 89
}, {
    "stationsId": "07157",
    "name": "PARIS CH.D.GAULLE",
    "latitude": 49.02,
    "longitude": 2.53,
    "altitude": 108
}, {
    "stationsId": "07168",
    "name": "TROYES",
    "latitude": 48.33,
    "longitude": 4.02,
    "altitude": 112
}, {
    "stationsId": "07169",
    "name": "ST. DIZIER",
    "latitude": 48.63,
    "longitude": 4.90,
    "altitude": 139
}, {
    "stationsId": "07180",
    "name": "NANCY",
    "latitude": 48.68,
    "longitude": 6.22,
    "altitude": 229
}, {
    "stationsId": "07190",
    "name": "STRASSBURG",
    "latitude": 48.55,
    "longitude": 7.63,
    "altitude": 153
}, {
    "stationsId": "07200",
    "name": "PENMARCH",
    "latitude": 47.80,
    "longitude": -4.37,
    "altitude": 6
}, {
    "stationsId": "07201",
    "name": "QUIMPER",
    "latitude": 47.97,
    "longitude": -4.17,
    "altitude": 92
}, {
    "stationsId": "07205",
    "name": "LANN BIHOUE",
    "latitude": 47.77,
    "longitude": -3.45,
    "altitude": 42
}, {
    "stationsId": "07222",
    "name": "NANTES",
    "latitude": 47.17,
    "longitude": -1.60,
    "altitude": 27
}, {
    "stationsId": "07235",
    "name": "LE MANS",
    "latitude": 47.95,
    "longitude": 0.20,
    "altitude": 52
}, {
    "stationsId": "07240",
    "name": "TOURS",
    "latitude": 47.45,
    "longitude": 0.72,
    "altitude": 108
}, {
    "stationsId": "07249",
    "name": "ORLEANS",
    "latitude": 47.98,
    "longitude": 1.78,
    "altitude": 125
}, {
    "stationsId": "07255",
    "name": "BOURGES",
    "latitude": 47.07,
    "longitude": 2.37,
    "altitude": 161
}, {
    "stationsId": "07260",
    "name": "NEVERS",
    "latitude": 47.00,
    "longitude": 3.10,
    "altitude": 175
}, {
    "stationsId": "07280",
    "name": "DIJON",
    "latitude": 47.27,
    "longitude": 5.08,
    "altitude": 219
}, {
    "stationsId": "07288",
    "name": "BESANCON",
    "latitude": 47.25,
    "longitude": 5.98,
    "altitude": 307
}, {
    "stationsId": "07299",
    "name": "BASEL-MLH.",
    "latitude": 47.60,
    "longitude": 7.52,
    "altitude": 270
}, {
    "stationsId": "07306",
    "name": "LA ROCHE-SUR-YON",
    "latitude": 46.70,
    "longitude": -1.38,
    "altitude": 90
}, {
    "stationsId": "07315",
    "name": "LA ROCHELLE",
    "latitude": 46.15,
    "longitude": -1.15,
    "altitude": 4
}, {
    "stationsId": "07335",
    "name": "POITIERS",
    "latitude": 46.58,
    "longitude": 0.30,
    "altitude": 120
}, {
    "stationsId": "07354",
    "name": "CHATEAUROUX",
    "latitude": 46.87,
    "longitude": 1.72,
    "altitude": 155
}, {
    "stationsId": "07379",
    "name": "SAINT-YAN.",
    "latitude": 46.42,
    "longitude": 4.02,
    "altitude": 242
}, {
    "stationsId": "07385",
    "name": "MACON",
    "latitude": 46.30,
    "longitude": 4.80,
    "altitude": 216
}, {
    "stationsId": "07434",
    "name": "LIMOGES",
    "latitude": 45.87,
    "longitude": 1.18,
    "altitude": 402
}, {
    "stationsId": "07460",
    "name": "CLERMONT",
    "latitude": 45.78,
    "longitude": 3.17,
    "altitude": 329
}, {
    "stationsId": "07475",
    "name": "ST. ETIENNE",
    "latitude": 45.53,
    "longitude": 4.30,
    "altitude": 402
}, {
    "stationsId": "07480",
    "name": "LYON/BRON",
    "latitude": 45.72,
    "longitude": 4.95,
    "altitude": 200
}, {
    "stationsId": "07481",
    "name": "LYON/SATOLAS",
    "latitude": 45.73,
    "longitude": 5.08,
    "altitude": 248
}, {
    "stationsId": "07486",
    "name": "GRENOBLE",
    "latitude": 45.37,
    "longitude": 5.33,
    "altitude": 384
}, {
    "stationsId": "07491",
    "name": "CHAMBERY - AIX",
    "latitude": 45.65,
    "longitude": 5.88,
    "altitude": 235
}, {
    "stationsId": "07497",
    "name": "BOURG-ST-M",
    "latitude": 45.62,
    "longitude": 6.77,
    "altitude": 865
}, {
    "stationsId": "07510",
    "name": "BORDEAUX",
    "latitude": 44.83,
    "longitude": -0.70,
    "altitude": 49
}, {
    "stationsId": "07558",
    "name": "MILLAU",
    "latitude": 44.12,
    "longitude": 3.02,
    "altitude": 715
}, {
    "stationsId": "07577",
    "name": "MONTELIMAR",
    "latitude": 44.58,
    "longitude": 4.73,
    "altitude": 73
}, {
    "stationsId": "07579",
    "name": "ORANGE",
    "latitude": 44.13,
    "longitude": 4.83,
    "altitude": 53
}, {
    "stationsId": "07588",
    "name": "ST.AUBAN",
    "latitude": 44.07,
    "longitude": 6.00,
    "altitude": 457
}, {
    "stationsId": "07600",
    "name": "SOCOA",
    "latitude": 43.40,
    "longitude": -1.68,
    "altitude": 24
}, {
    "stationsId": "07602",
    "name": "BIARRITZ",
    "latitude": 43.47,
    "longitude": -1.53,
    "altitude": 69
}, {
    "stationsId": "07610",
    "name": "PAU",
    "latitude": 43.38,
    "longitude": -0.42,
    "altitude": 185
}, {
    "stationsId": "07621",
    "name": "TARBES/OSSUN",
    "latitude": 43.18,
    "longitude": 0.00,
    "altitude": 364
}, {
    "stationsId": "07622",
    "name": "AUCH",
    "latitude": 43.68,
    "longitude": 0.60,
    "altitude": 121
}, {
    "stationsId": "07630",
    "name": "TOULOUSE",
    "latitude": 43.63,
    "longitude": 1.37,
    "altitude": 152
}, {
    "stationsId": "07635",
    "name": "CARCASSONNE",
    "latitude": 43.22,
    "longitude": 2.32,
    "altitude": 126
}, {
    "stationsId": "07638",
    "name": "BEZIER-VIAS",
    "latitude": 43.30,
    "longitude": 3.40,
    "altitude": 16
}, {
    "stationsId": "07643",
    "name": "MONTPELLIER",
    "latitude": 43.58,
    "longitude": 3.97,
    "altitude": 3
}, {
    "stationsId": "07645",
    "name": "NIMES/COURBESSAC",
    "latitude": 43.87,
    "longitude": 4.40,
    "altitude": 59
}, {
    "stationsId": "07648",
    "name": "SALON",
    "latitude": 43.60,
    "longitude": 5.10,
    "altitude": 59
}, {
    "stationsId": "07650",
    "name": "MARSEILLE",
    "latitude": 43.45,
    "longitude": 5.22,
    "altitude": 5
}, {
    "stationsId": "07667",
    "name": "HYERES/ALMANARRE",
    "latitude": 43.10,
    "longitude": 6.15,
    "altitude": 3
}, {
    "stationsId": "07675",
    "name": "LE LUC",
    "latitude": 43.38,
    "longitude": 6.38,
    "altitude": 80
}, {
    "stationsId": "07684",
    "name": "CANNES",
    "latitude": 43.55,
    "longitude": 6.95,
    "altitude": 3
}, {
    "stationsId": "07690",
    "name": "NIZZA",
    "latitude": 43.65,
    "longitude": 7.20,
    "altitude": 4
}, {
    "stationsId": "07747",
    "name": "PERPIGNAN",
    "latitude": 42.73,
    "longitude": 2.87,
    "altitude": 43
}, {
    "stationsId": "07754",
    "name": "CALVI",
    "latitude": 42.53,
    "longitude": 8.80,
    "altitude": 46
}, {
    "stationsId": "07761",
    "name": "AJACCIO",
    "latitude": 41.92,
    "longitude": 8.80,
    "altitude": 6
}, {
    "stationsId": "07770",
    "name": "PERTUSATO / CORSICA",
    "latitude": 41.37,
    "longitude": 9.18,
    "altitude": 105
}, {
    "stationsId": "07780",
    "name": "FIGARI",
    "latitude": 41.50,
    "longitude": 9.10,
    "altitude": 26
}, {
    "stationsId": "07785",
    "name": "CAP CORSE",
    "latitude": 43.00,
    "longitude": 9.37,
    "altitude": 111
}, {
    "stationsId": "07790",
    "name": "BASTIA",
    "latitude": 42.55,
    "longitude": 9.48,
    "altitude": 10
}, {
    "stationsId": "08001",
    "name": "LA CORUNA",
    "latitude": 43.37,
    "longitude": -8.42,
    "altitude": 58
}, {
    "stationsId": "08014",
    "name": "GIJON",
    "latitude": 43.53,
    "longitude": -5.63,
    "altitude": 3
}, {
    "stationsId": "08015",
    "name": "OVIEDO",
    "latitude": 43.35,
    "longitude": -5.87,
    "altitude": 335
}, {
    "stationsId": "08021",
    "name": "SANTANDER/PARAYAS",
    "latitude": 43.43,
    "longitude": -3.82,
    "altitude": 6
}, {
    "stationsId": "08023",
    "name": "SANTANDER",
    "latitude": 43.48,
    "longitude": -3.80,
    "altitude": 52
}, {
    "stationsId": "08025",
    "name": "BILBAO",
    "latitude": 43.30,
    "longitude": -2.93,
    "altitude": 42
}, {
    "stationsId": "08027",
    "name": "SAN SEBASTIAN/IGUEL.",
    "latitude": 43.30,
    "longitude": -2.05,
    "altitude": 258
}, {
    "stationsId": "08029",
    "name": "SAN SEBASTIAN/FUENT.",
    "latitude": 43.35,
    "longitude": -1.80,
    "altitude": 5
}, {
    "stationsId": "08042",
    "name": "SANTIAGO",
    "latitude": 42.90,
    "longitude": -8.43,
    "altitude": 370
}, {
    "stationsId": "08045",
    "name": "VIGO/PEINADOR",
    "latitude": 42.22,
    "longitude": -8.63,
    "altitude": 264
}, {
    "stationsId": "08055",
    "name": "LEON",
    "latitude": 42.58,
    "longitude": -5.65,
    "altitude": 926
}, {
    "stationsId": "08075",
    "name": "BURGOS-VILLAFRIA",
    "latitude": 42.37,
    "longitude": -3.63,
    "altitude": 894
}, {
    "stationsId": "08080",
    "name": "VITORIA OBSERVATORI",
    "latitude": 42.87,
    "longitude": -2.73,
    "altitude": 513
}, {
    "stationsId": "08140",
    "name": "VALLADOLID",
    "latitude": 41.72,
    "longitude": -4.85,
    "altitude": 849
}, {
    "stationsId": "08141",
    "name": "VALLADOLID",
    "latitude": 41.63,
    "longitude": -4.75,
    "altitude": 735
}, {
    "stationsId": "08160",
    "name": "ZARAGOZA",
    "latitude": 41.67,
    "longitude": -1.02,
    "altitude": 263
}, {
    "stationsId": "08171",
    "name": "LERIDA",
    "latitude": 41.62,
    "longitude": 0.63,
    "altitude": 203
}, {
    "stationsId": "08175",
    "name": "REUS",
    "latitude": 41.15,
    "longitude": 1.17,
    "altitude": 71
}, {
    "stationsId": "08181",
    "name": "BARCELONA",
    "latitude": 41.28,
    "longitude": 2.07,
    "altitude": 4
}, {
    "stationsId": "08184",
    "name": "GERONA/COST.BRAVA",
    "latitude": 41.90,
    "longitude": 2.77,
    "altitude": 143
}, {
    "stationsId": "08202",
    "name": "SALAMANCA/MATACAN",
    "latitude": 40.95,
    "longitude": -5.50,
    "altitude": 793
}, {
    "stationsId": "08221",
    "name": "MADRID/BARAJAS",
    "latitude": 40.45,
    "longitude": -3.55,
    "altitude": 609
}, {
    "stationsId": "08272",
    "name": "TOLEDO BUENAVISTA",
    "latitude": 39.88,
    "longitude": -4.05,
    "altitude": 451
}, {
    "stationsId": "08280",
    "name": "ALBACETE/LOS LLANOS",
    "latitude": 38.95,
    "longitude": -1.85,
    "altitude": 702
}, {
    "stationsId": "08284",
    "name": "VALENCIA",
    "latitude": 39.50,
    "longitude": -0.47,
    "altitude": 69
}, {
    "stationsId": "08286",
    "name": "CASTELLON DE LA PLAN",
    "latitude": 39.95,
    "longitude": 0.07,
    "altitude": 36
}, {
    "stationsId": "08306",
    "name": "PALMA",
    "latitude": 39.55,
    "longitude": 2.73,
    "altitude": 4
}, {
    "stationsId": "08314",
    "name": "MENORCA",
    "latitude": 39.87,
    "longitude": 4.23,
    "altitude": 87
}, {
    "stationsId": "08330",
    "name": "BADAJOZ/TALAVERA",
    "latitude": 38.88,
    "longitude": -6.82,
    "altitude": 185
}, {
    "stationsId": "08360",
    "name": "ALICANTE",
    "latitude": 38.28,
    "longitude": -0.55,
    "altitude": 43
}, {
    "stationsId": "08373",
    "name": "IBIZA",
    "latitude": 38.87,
    "longitude": 1.38,
    "altitude": 17
}, {
    "stationsId": "08383",
    "name": "HUELVA",
    "latitude": 37.28,
    "longitude": -6.92,
    "altitude": 19
}, {
    "stationsId": "08391",
    "name": "SEVILLA/SAN PABLO",
    "latitude": 37.42,
    "longitude": -5.88,
    "altitude": 34
}, {
    "stationsId": "08397",
    "name": "MORON DE LA FRONTERA",
    "latitude": 37.15,
    "longitude": -5.62,
    "altitude": 87
}, {
    "stationsId": "08410",
    "name": "CORDOBA",
    "latitude": 37.85,
    "longitude": -4.85,
    "altitude": 90
}, {
    "stationsId": "08419",
    "name": "GRANADA/AEROPUERTO",
    "latitude": 37.18,
    "longitude": -3.78,
    "altitude": 567
}, {
    "stationsId": "08430",
    "name": "MURCIA",
    "latitude": 38.00,
    "longitude": -1.17,
    "altitude": 61
}, {
    "stationsId": "08433",
    "name": "MURCIA/SAN JAVIER",
    "latitude": 37.78,
    "longitude": -0.80,
    "altitude": 5
}, {
    "stationsId": "08451",
    "name": "JEREZ DE LA FRONTERA",
    "latitude": 36.75,
    "longitude": -6.07,
    "altitude": 27
}, {
    "stationsId": "08482",
    "name": "MALAGA",
    "latitude": 36.67,
    "longitude": -4.48,
    "altitude": 16
}, {
    "stationsId": "08487",
    "name": "ALMERIA",
    "latitude": 36.85,
    "longitude": -2.38,
    "altitude": 15
}, {
    "stationsId": "08495",
    "name": "GIBRALTAR",
    "latitude": 36.15,
    "longitude": -5.35,
    "altitude": 5
}, {
    "stationsId": "08532",
    "name": "SINTRA/GRANJA",
    "latitude": 38.83,
    "longitude": -9.33,
    "altitude": 134
}, {
    "stationsId": "08540",
    "name": "MONTE REAL",
    "latitude": 39.83,
    "longitude": -8.88,
    "altitude": 52
}, {
    "stationsId": "08541",
    "name": "SINES (MONTES CHAOS)",
    "latitude": 37.95,
    "longitude": -8.83,
    "altitude": 98
}, {
    "stationsId": "08545",
    "name": "PORTO",
    "latitude": 41.23,
    "longitude": -8.68,
    "altitude": 69
}, {
    "stationsId": "08548",
    "name": "COIMBRA/CERVACHE",
    "latitude": 40.15,
    "longitude": -8.47,
    "altitude": 179
}, {
    "stationsId": "08551",
    "name": "VIANA DO CASTELO",
    "latitude": 41.63,
    "longitude": -8.80,
    "altitude": 48
}, {
    "stationsId": "08554",
    "name": "FARO",
    "latitude": 37.02,
    "longitude": -7.97,
    "altitude": 7
}, {
    "stationsId": "08562",
    "name": "BEJA",
    "latitude": 38.02,
    "longitude": -7.87,
    "altitude": 246
}, {
    "stationsId": "08567",
    "name": "VILA REAL",
    "latitude": 41.27,
    "longitude": -7.72,
    "altitude": 561
}, {
    "stationsId": "08571",
    "name": "PORTALEGRE",
    "latitude": 39.28,
    "longitude": -7.42,
    "altitude": 467
}, {
    "stationsId": "08579",
    "name": "LISBOA/GAGO COUTINHO",
    "latitude": 38.77,
    "longitude": -9.13,
    "altitude": 104
}, {
    "stationsId": "10004",
    "name": "UFS TW EMS",
    "latitude": 54.17,
    "longitude": 6.35,
    "altitude": 0
}, {
    "stationsId": "10007",
    "name": "UFS DEUTSCHE BUCHT",
    "latitude": 54.17,
    "longitude": 7.45,
    "altitude": 0
}, {
    "stationsId": "10015",
    "name": "HELGOLAND",
    "latitude": 54.17,
    "longitude": 7.88,
    "altitude": 4
}, {
    "stationsId": "10020",
    "name": "LIST/SYLT",
    "latitude": 55.02,
    "longitude": 8.42,
    "altitude": 26
}, {
    "stationsId": "10022",
    "name": "LECK",
    "latitude": 54.80,
    "longitude": 8.95,
    "altitude": 7
}, {
    "stationsId": "10028",
    "name": "ST. PETER ORDING",
    "latitude": 54.33,
    "longitude": 8.60,
    "altitude": 5
}, {
    "stationsId": "10033",
    "name": "FLENSBURG",
    "latitude": 54.83,
    "longitude": 9.50,
    "altitude": 27
}, {
    "stationsId": "10035",
    "name": "SCHLESWIG",
    "latitude": 54.53,
    "longitude": 9.55,
    "altitude": 47
}, {
    "stationsId": "10037",
    "name": "SCHLESWIG-JAGEL",
    "latitude": 54.47,
    "longitude": 9.52,
    "altitude": 22
}, {
    "stationsId": "10038",
    "name": "HOHN",
    "latitude": 54.32,
    "longitude": 9.53,
    "altitude": 10
}, {
    "stationsId": "10042",
    "name": "OLPENITZ",
    "latitude": 54.67,
    "longitude": 10.03,
    "altitude": 4
}, {
    "stationsId": "10044",
    "name": "LEUCHTTURM KIEL",
    "latitude": 54.50,
    "longitude": 10.27,
    "altitude": 5
}, {
    "stationsId": "10046",
    "name": "KIEL-H.",
    "latitude": 54.38,
    "longitude": 10.15,
    "altitude": 31
}, {
    "stationsId": "10055",
    "name": "WESTERMARKELSDORF",
    "latitude": 54.53,
    "longitude": 11.07,
    "altitude": 3
}, {
    "stationsId": "10091",
    "name": "ARKONA",
    "latitude": 54.68,
    "longitude": 13.43,
    "altitude": 42
}, {
    "stationsId": "10093",
    "name": "PUTBUS",
    "latitude": 54.37,
    "longitude": 13.48,
    "altitude": 40
}, {
    "stationsId": "10097",
    "name": "GREIFSWALDER OIE",
    "latitude": 54.23,
    "longitude": 13.92,
    "altitude": 12
}, {
    "stationsId": "10113",
    "name": "NORDERNEY",
    "latitude": 53.72,
    "longitude": 7.15,
    "altitude": 11
}, {
    "stationsId": "10126",
    "name": "WITTMUNDHAVEN",
    "latitude": 53.55,
    "longitude": 7.67,
    "altitude": 8
}, {
    "stationsId": "10129",
    "name": "BREMERHAVEN",
    "latitude": 53.53,
    "longitude": 8.58,
    "altitude": 7
}, {
    "stationsId": "10130",
    "name": "ELPERSBUETTEL",
    "latitude": 54.07,
    "longitude": 9.02,
    "altitude": 3
}, {
    "stationsId": "10131",
    "name": "CUXHAVEN",
    "latitude": 53.87,
    "longitude": 8.72,
    "altitude": 5
}, {
    "stationsId": "10136",
    "name": "NORDHOLZ",
    "latitude": 53.77,
    "longitude": 8.67,
    "altitude": 23
}, {
    "stationsId": "10139",
    "name": "BREMERVOERDE",
    "latitude": 53.50,
    "longitude": 9.17,
    "altitude": 3
}, {
    "stationsId": "10142",
    "name": "ITZEHOE",
    "latitude": 54.00,
    "longitude": 9.58,
    "altitude": 25
}, {
    "stationsId": "10146",
    "name": "QUICKBORN",
    "latitude": 53.73,
    "longitude": 9.88,
    "altitude": 13
}, {
    "stationsId": "10147",
    "name": "HAMBURG-FU.",
    "latitude": 53.63,
    "longitude": 10.00,
    "altitude": 16
}, {
    "stationsId": "10150",
    "name": "DOERNICK",
    "latitude": 54.17,
    "longitude": 10.35,
    "altitude": 26
}, {
    "stationsId": "10152",
    "name": "PELZERHAKEN",
    "latitude": 54.08,
    "longitude": 10.88,
    "altitude": 1
}, {
    "stationsId": "10156",
    "name": "LUEBECK",
    "latitude": 53.82,
    "longitude": 10.70,
    "altitude": 14
}, {
    "stationsId": "10161",
    "name": "BOLTENHAGEN",
    "latitude": 54.00,
    "longitude": 11.18,
    "altitude": 15
}, {
    "stationsId": "10162",
    "name": "SCHWERIN",
    "latitude": 53.63,
    "longitude": 11.38,
    "altitude": 59
}, {
    "stationsId": "10168",
    "name": "GOLDBERG",
    "latitude": 53.62,
    "longitude": 12.10,
    "altitude": 58
}, {
    "stationsId": "10170",
    "name": "WARNEMUENDE",
    "latitude": 54.18,
    "longitude": 12.08,
    "altitude": 4
}, {
    "stationsId": "10172",
    "name": "LAAGE",
    "latitude": 53.92,
    "longitude": 12.28,
    "altitude": 42
}, {
    "stationsId": "10180",
    "name": "BARTH",
    "latitude": 54.33,
    "longitude": 12.72,
    "altitude": 7
}, {
    "stationsId": "10184",
    "name": "GREIFSWALD",
    "latitude": 54.10,
    "longitude": 13.42,
    "altitude": 2
}, {
    "stationsId": "10193",
    "name": "UECKERMUENDE",
    "latitude": 53.73,
    "longitude": 14.07,
    "altitude": 1
}, {
    "stationsId": "10200",
    "name": "EMDEN-FLUGPLATZ",
    "latitude": 53.38,
    "longitude": 7.23,
    "altitude": 0
}, {
    "stationsId": "10224",
    "name": "BREMEN",
    "latitude": 53.05,
    "longitude": 8.80,
    "altitude": 3
}, {
    "stationsId": "10235",
    "name": "SOLTAU",
    "latitude": 52.97,
    "longitude": 9.78,
    "altitude": 76
}, {
    "stationsId": "10238",
    "name": "BERGEN-HOHNE",
    "latitude": 52.82,
    "longitude": 9.93,
    "altitude": 70
}, {
    "stationsId": "10246",
    "name": "FASSBERG",
    "latitude": 52.92,
    "longitude": 10.18,
    "altitude": 75
}, {
    "stationsId": "10249",
    "name": "BOIZENBURG",
    "latitude": 53.38,
    "longitude": 10.68,
    "altitude": 45
}, {
    "stationsId": "10253",
    "name": "LUECHOW",
    "latitude": 52.97,
    "longitude": 11.13,
    "altitude": 17
}, {
    "stationsId": "10261",
    "name": "SEEHAUSEN",
    "latitude": 52.88,
    "longitude": 11.73,
    "altitude": 21
}, {
    "stationsId": "10264",
    "name": "MARNITZ",
    "latitude": 53.32,
    "longitude": 11.93,
    "altitude": 81
}, {
    "stationsId": "10267",
    "name": "KYRITZ",
    "latitude": 52.93,
    "longitude": 12.42,
    "altitude": 40
}, {
    "stationsId": "10268",
    "name": "WAREN",
    "latitude": 53.52,
    "longitude": 12.67,
    "altitude": 70
}, {
    "stationsId": "10270",
    "name": "NEURUPPIN",
    "latitude": 52.90,
    "longitude": 12.82,
    "altitude": 38
}, {
    "stationsId": "10281",
    "name": "TROLLENHAGEN",
    "latitude": 53.60,
    "longitude": 13.30,
    "altitude": 71
}, {
    "stationsId": "10282",
    "name": "FELDBERG/MECKLENBURG",
    "latitude": 53.32,
    "longitude": 13.42,
    "altitude": 115
}, {
    "stationsId": "10289",
    "name": "GRUENOW",
    "latitude": 53.32,
    "longitude": 13.93,
    "altitude": 56
}, {
    "stationsId": "10291",
    "name": "ANGERMUENDE",
    "latitude": 53.03,
    "longitude": 14.00,
    "altitude": 56
}, {
    "stationsId": "10305",
    "name": "LINGEN",
    "latitude": 52.52,
    "longitude": 7.32,
    "altitude": 22
}, {
    "stationsId": "10306",
    "name": "RHEINE-BENTLAGE",
    "latitude": 52.30,
    "longitude": 7.38,
    "altitude": 40
}, {
    "stationsId": "10309",
    "name": "AHAUS",
    "latitude": 52.08,
    "longitude": 6.93,
    "altitude": 46
}, {
    "stationsId": "10312",
    "name": "BELM",
    "latitude": 52.32,
    "longitude": 8.17,
    "altitude": 103
}, {
    "stationsId": "10315",
    "name": "MUENSTER/OSNABR.",
    "latitude": 52.13,
    "longitude": 7.70,
    "altitude": 48
}, {
    "stationsId": "10321",
    "name": "DIEPHOLZ",
    "latitude": 52.58,
    "longitude": 8.35,
    "altitude": 39
}, {
    "stationsId": "10325",
    "name": "BAD SALZUFLEN",
    "latitude": 52.10,
    "longitude": 8.75,
    "altitude": 135
}, {
    "stationsId": "10334",
    "name": "WUNSTORF",
    "latitude": 52.45,
    "longitude": 9.43,
    "altitude": 57
}, {
    "stationsId": "10335",
    "name": "BUECKEBURG",
    "latitude": 52.28,
    "longitude": 9.08,
    "altitude": 70
}, {
    "stationsId": "10338",
    "name": "HANNOVER",
    "latitude": 52.47,
    "longitude": 9.68,
    "altitude": 56
}, {
    "stationsId": "10343",
    "name": "CELLE",
    "latitude": 52.60,
    "longitude": 10.02,
    "altitude": 39
}, {
    "stationsId": "10348",
    "name": "BRAUNSCHWG.",
    "latitude": 52.28,
    "longitude": 10.45,
    "altitude": 81
}, {
    "stationsId": "10356",
    "name": "UMMENDORF",
    "latitude": 52.17,
    "longitude": 11.18,
    "altitude": 162
}, {
    "stationsId": "10359",
    "name": "GARDELEGEN",
    "latitude": 52.52,
    "longitude": 11.38,
    "altitude": 47
}, {
    "stationsId": "10361",
    "name": "MAGDEBURG",
    "latitude": 52.12,
    "longitude": 11.58,
    "altitude": 79
}, {
    "stationsId": "10365",
    "name": "GENTHIN",
    "latitude": 52.38,
    "longitude": 12.17,
    "altitude": 35
}, {
    "stationsId": "10368",
    "name": "WIESENBURG",
    "latitude": 52.12,
    "longitude": 12.47,
    "altitude": 187
}, {
    "stationsId": "10376",
    "name": "BARUTH",
    "latitude": 52.07,
    "longitude": 13.50,
    "altitude": 55
}, {
    "stationsId": "10379",
    "name": "POTSDAM",
    "latitude": 52.38,
    "longitude": 13.07,
    "altitude": 99
}, {
    "stationsId": "10381",
    "name": "BERLIN-DAHLEM",
    "latitude": 52.47,
    "longitude": 13.30,
    "altitude": 58
}, {
    "stationsId": "10382",
    "name": "BERLIN-TEGEL",
    "latitude": 52.57,
    "longitude": 13.32,
    "altitude": 37
}, {
    "stationsId": "10384",
    "name": "BERLIN-TEMPELHOF",
    "latitude": 52.47,
    "longitude": 13.40,
    "altitude": 50
}, {
    "stationsId": "10385",
    "name": "BERLIN-SCHOENEFELD",
    "latitude": 52.38,
    "longitude": 13.52,
    "altitude": 47
}, {
    "stationsId": "10389",
    "name": "BERLIN-ALEX.",
    "latitude": 52.52,
    "longitude": 13.42,
    "altitude": 37
}, {
    "stationsId": "10393",
    "name": "LINDENBERG",
    "latitude": 52.22,
    "longitude": 14.12,
    "altitude": 112
}, {
    "stationsId": "10396",
    "name": "MANSCHNOW",
    "latitude": 52.55,
    "longitude": 14.55,
    "altitude": 12
}, {
    "stationsId": "10400",
    "name": "DUESSELDORF",
    "latitude": 51.30,
    "longitude": 6.77,
    "altitude": 45
}, {
    "stationsId": "10404",
    "name": "KALKAR",
    "latitude": 51.73,
    "longitude": 6.27,
    "altitude": 27
}, {
    "stationsId": "10410",
    "name": "ESSEN",
    "latitude": 51.40,
    "longitude": 6.97,
    "altitude": 161
}, {
    "stationsId": "10418",
    "name": "LUEDENSCHEID",
    "latitude": 51.25,
    "longitude": 7.63,
    "altitude": 387
}, {
    "stationsId": "10424",
    "name": "WERL",
    "latitude": 51.58,
    "longitude": 7.88,
    "altitude": 85
}, {
    "stationsId": "10427",
    "name": "K.ASTEN",
    "latitude": 51.18,
    "longitude": 8.48,
    "altitude": 839
}, {
    "stationsId": "10430",
    "name": "BAD LIPPSPRINGE",
    "latitude": 51.78,
    "longitude": 8.83,
    "altitude": 157
}, {
    "stationsId": "10433",
    "name": "LUEDGE",
    "latitude": 51.87,
    "longitude": 9.27,
    "altitude": 258
}, {
    "stationsId": "10435",
    "name": "WARBURG",
    "latitude": 51.50,
    "longitude": 9.12,
    "altitude": 236
}, {
    "stationsId": "10439",
    "name": "FRITZLAR",
    "latitude": 51.12,
    "longitude": 9.28,
    "altitude": 172
}, {
    "stationsId": "10442",
    "name": "ALFELD",
    "latitude": 51.97,
    "longitude": 9.80,
    "altitude": 148
}, {
    "stationsId": "10444",
    "name": "GOETTINGEN",
    "latitude": 51.50,
    "longitude": 9.95,
    "altitude": 175
}, {
    "stationsId": "10449",
    "name": "LEINEFELDE",
    "latitude": 51.38,
    "longitude": 10.32,
    "altitude": 356
}, {
    "stationsId": "10452",
    "name": "BRAUNLAGE",
    "latitude": 51.72,
    "longitude": 10.60,
    "altitude": 607
}, {
    "stationsId": "10453",
    "name": "BROCKEN",
    "latitude": 51.80,
    "longitude": 10.62,
    "altitude": 1142
}, {
    "stationsId": "10454",
    "name": "WERNIGERODE",
    "latitude": 51.85,
    "longitude": 10.77,
    "altitude": 234
}, {
    "stationsId": "10458",
    "name": "HARZGERODE",
    "latitude": 51.65,
    "longitude": 11.13,
    "altitude": 404
}, {
    "stationsId": "10460",
    "name": "ARTERN",
    "latitude": 51.37,
    "longitude": 11.28,
    "altitude": 164
}, {
    "stationsId": "10469",
    "name": "LEIPZIG/SCHKEUDITZ",
    "latitude": 51.42,
    "longitude": 12.23,
    "altitude": 141
}, {
    "stationsId": "10471",
    "name": "LEIPZIG",
    "latitude": 51.32,
    "longitude": 12.42,
    "altitude": 141
}, {
    "stationsId": "10474",
    "name": "WITTENBERG",
    "latitude": 51.88,
    "longitude": 12.63,
    "altitude": 105
}, {
    "stationsId": "10476",
    "name": "HOLZDORF",
    "latitude": 51.77,
    "longitude": 13.18,
    "altitude": 79
}, {
    "stationsId": "10480",
    "name": "OSCHATZ",
    "latitude": 51.30,
    "longitude": 13.08,
    "altitude": 150
}, {
    "stationsId": "10488",
    "name": "DRESDEN",
    "latitude": 51.13,
    "longitude": 13.75,
    "altitude": 230
}, {
    "stationsId": "10490",
    "name": "DOBERLUG-KIRCHHAIN",
    "latitude": 51.65,
    "longitude": 13.57,
    "altitude": 97
}, {
    "stationsId": "10495",
    "name": "HOYERSWERDA",
    "latitude": 51.45,
    "longitude": 14.25,
    "altitude": 116
}, {
    "stationsId": "10496",
    "name": "COTTBUS",
    "latitude": 51.78,
    "longitude": 14.32,
    "altitude": 69
}, {
    "stationsId": "10499",
    "name": "GOERLITZ",
    "latitude": 51.17,
    "longitude": 14.95,
    "altitude": 237
}, {
    "stationsId": "10500",
    "name": "GEILENKIRCHEN",
    "latitude": 50.97,
    "longitude": 6.05,
    "altitude": 90
}, {
    "stationsId": "10502",
    "name": "NOERVENICH",
    "latitude": 50.83,
    "longitude": 6.67,
    "altitude": 118
}, {
    "stationsId": "10506",
    "name": "NUERBURG-BARWEILER",
    "latitude": 50.37,
    "longitude": 6.87,
    "altitude": 485
}, {
    "stationsId": "10513",
    "name": "KOELN/BONN",
    "latitude": 50.87,
    "longitude": 7.17,
    "altitude": 91
}, {
    "stationsId": "10516",
    "name": "KO-FALKENST.KASERNE",
    "latitude": 50.37,
    "longitude": 7.58,
    "altitude": 84
}, {
    "stationsId": "10519",
    "name": "BONN-ROLEBER",
    "latitude": 50.73,
    "longitude": 7.18,
    "altitude": 159
}, {
    "stationsId": "10526",
    "name": "B.MARIENBG.",
    "latitude": 50.67,
    "longitude": 7.97,
    "altitude": 547
}, {
    "stationsId": "10532",
    "name": "GIESSEN",
    "latitude": 50.60,
    "longitude": 8.63,
    "altitude": 203
}, {
    "stationsId": "10534",
    "name": "HOHERODSKOPF (VOGELS",
    "latitude": 50.52,
    "longitude": 9.22,
    "altitude": 743
}, {
    "stationsId": "10537",
    "name": "NEU-ULRICHSTEIN",
    "latitude": 50.75,
    "longitude": 9.02,
    "altitude": 350
}, {
    "stationsId": "10540",
    "name": "EISENACH",
    "latitude": 51.00,
    "longitude": 10.37,
    "altitude": 312
}, {
    "stationsId": "10542",
    "name": "BAD HERSFELD",
    "latitude": 50.85,
    "longitude": 9.73,
    "altitude": 272
}, {
    "stationsId": "10544",
    "name": "WASSERKUPPE",
    "latitude": 50.50,
    "longitude": 9.93,
    "altitude": 921
}, {
    "stationsId": "10548",
    "name": "MEININGEN",
    "latitude": 50.57,
    "longitude": 10.38,
    "altitude": 450
}, {
    "stationsId": "10552",
    "name": "SCHMUECKE",
    "latitude": 50.65,
    "longitude": 10.77,
    "altitude": 937
}, {
    "stationsId": "10554",
    "name": "ERFURT",
    "latitude": 50.98,
    "longitude": 10.97,
    "altitude": 315
}, {
    "stationsId": "10557",
    "name": "NEUHAUS A.R.",
    "latitude": 50.50,
    "longitude": 11.13,
    "altitude": 845
}, {
    "stationsId": "10564",
    "name": "SCHLEIZ",
    "latitude": 50.57,
    "longitude": 11.80,
    "altitude": 501
}, {
    "stationsId": "10565",
    "name": "OSTERFELD",
    "latitude": 51.08,
    "longitude": 11.93,
    "altitude": 246
}, {
    "stationsId": "10567",
    "name": "GERA",
    "latitude": 50.88,
    "longitude": 12.13,
    "altitude": 311
}, {
    "stationsId": "10569",
    "name": "PLAUEN",
    "latitude": 50.48,
    "longitude": 12.13,
    "altitude": 386
}, {
    "stationsId": "10574",
    "name": "CARLSFELD",
    "latitude": 50.43,
    "longitude": 12.62,
    "altitude": 897
}, {
    "stationsId": "10577",
    "name": "CHEMNITZ",
    "latitude": 50.78,
    "longitude": 12.87,
    "altitude": 418
}, {
    "stationsId": "10578",
    "name": "FICHTELBERG",
    "latitude": 50.43,
    "longitude": 12.95,
    "altitude": 1213
}, {
    "stationsId": "10579",
    "name": "MARIENBERG",
    "latitude": 50.65,
    "longitude": 13.15,
    "altitude": 639
}, {
    "stationsId": "10582",
    "name": "ZINNWALD-G.",
    "latitude": 50.73,
    "longitude": 13.75,
    "altitude": 877
}, {
    "stationsId": "10591",
    "name": "LICHTENHAIN",
    "latitude": 50.93,
    "longitude": 14.22,
    "altitude": 321
}, {
    "stationsId": "10609",
    "name": "TRIER",
    "latitude": 49.75,
    "longitude": 6.67,
    "altitude": 265
}, {
    "stationsId": "10613",
    "name": "BUECHEL",
    "latitude": 50.17,
    "longitude": 7.07,
    "altitude": 478
}, {
    "stationsId": "10615",
    "name": "DEUSELBACH",
    "latitude": 49.77,
    "longitude": 7.05,
    "altitude": 481
}, {
    "stationsId": "10616",
    "name": "HAHN",
    "latitude": 49.95,
    "longitude": 7.27,
    "altitude": 502
}, {
    "stationsId": "10618",
    "name": "IDAR-OBERSTEIN",
    "latitude": 49.70,
    "longitude": 7.33,
    "altitude": 376
}, {
    "stationsId": "10628",
    "name": "GEISENHEIM",
    "latitude": 49.98,
    "longitude": 7.95,
    "altitude": 118
}, {
    "stationsId": "10635",
    "name": "KL.FELDBG./TS.",
    "latitude": 50.22,
    "longitude": 8.45,
    "altitude": 805
}, {
    "stationsId": "10637",
    "name": "FRANKFURT/M",
    "latitude": 50.05,
    "longitude": 8.60,
    "altitude": 111
}, {
    "stationsId": "10641",
    "name": "OFFENBACH-WETTERPARK",
    "latitude": 50.08,
    "longitude": 8.78,
    "altitude": 119
}, {
    "stationsId": "10646",
    "name": "NEUHUETTEN/SPESSART",
    "latitude": 50.02,
    "longitude": 9.42,
    "altitude": 340
}, {
    "stationsId": "10648",
    "name": "MICHELSTADT-V.",
    "latitude": 49.72,
    "longitude": 9.10,
    "altitude": 453
}, {
    "stationsId": "10655",
    "name": "WUERZBURG",
    "latitude": 49.77,
    "longitude": 9.97,
    "altitude": 268
}, {
    "stationsId": "10658",
    "name": "KISSINGEN",
    "latitude": 50.20,
    "longitude": 10.08,
    "altitude": 262
}, {
    "stationsId": "10671",
    "name": "COBURG",
    "latitude": 50.28,
    "longitude": 10.98,
    "altitude": 322
}, {
    "stationsId": "10675",
    "name": "BAMBERG",
    "latitude": 49.88,
    "longitude": 10.92,
    "altitude": 243
}, {
    "stationsId": "10685",
    "name": "HOF",
    "latitude": 50.32,
    "longitude": 11.88,
    "altitude": 567
}, {
    "stationsId": "10686",
    "name": "WUNSIEDEL-SCHOENBRUN",
    "latitude": 50.03,
    "longitude": 11.97,
    "altitude": 622
}, {
    "stationsId": "10688",
    "name": "WEIDEN",
    "latitude": 49.67,
    "longitude": 12.18,
    "altitude": 438
}, {
    "stationsId": "10704",
    "name": "BERUS",
    "latitude": 49.27,
    "longitude": 6.68,
    "altitude": 363
}, {
    "stationsId": "10706",
    "name": "THOLEY",
    "latitude": 49.48,
    "longitude": 7.05,
    "altitude": 396
}, {
    "stationsId": "10708",
    "name": "SAARBRUECKEN",
    "latitude": 49.22,
    "longitude": 7.12,
    "altitude": 322
}, {
    "stationsId": "10724",
    "name": "WEINBIET",
    "latitude": 49.38,
    "longitude": 8.12,
    "altitude": 553
}, {
    "stationsId": "10729",
    "name": "MANNHEIM",
    "latitude": 49.52,
    "longitude": 8.55,
    "altitude": 96
}, {
    "stationsId": "10731",
    "name": "RHEINSTETTEN",
    "latitude": 48.97,
    "longitude": 8.32,
    "altitude": 118
}, {
    "stationsId": "10733",
    "name": "WAIBSTADT",
    "latitude": 49.28,
    "longitude": 8.92,
    "altitude": 237
}, {
    "stationsId": "10736",
    "name": "MUEHLACKER",
    "latitude": 48.97,
    "longitude": 8.87,
    "altitude": 244
}, {
    "stationsId": "10738",
    "name": "STUTTGART-ECHT.",
    "latitude": 48.68,
    "longitude": 9.22,
    "altitude": 396
}, {
    "stationsId": "10739",
    "name": "STUTTGART-SCHN.",
    "latitude": 48.83,
    "longitude": 9.20,
    "altitude": 314
}, {
    "stationsId": "10742",
    "name": "OEHRINGEN",
    "latitude": 49.22,
    "longitude": 9.52,
    "altitude": 276
}, {
    "stationsId": "10743",
    "name": "NIEDERSTETTEN",
    "latitude": 49.40,
    "longitude": 9.97,
    "altitude": 468
}, {
    "stationsId": "10756",
    "name": "FEUCHTWANGEN",
    "latitude": 49.17,
    "longitude": 10.37,
    "altitude": 475
}, {
    "stationsId": "10761",
    "name": "WEISSENBURG-EMETZH.",
    "latitude": 49.02,
    "longitude": 10.93,
    "altitude": 439
}, {
    "stationsId": "10763",
    "name": "NUERNBERG",
    "latitude": 49.50,
    "longitude": 11.05,
    "altitude": 318
}, {
    "stationsId": "10765",
    "name": "ROTH",
    "latitude": 49.22,
    "longitude": 11.10,
    "altitude": 388
}, {
    "stationsId": "10771",
    "name": "KUEMMERSBRUCK",
    "latitude": 49.43,
    "longitude": 11.90,
    "altitude": 419
}, {
    "stationsId": "10776",
    "name": "REGENSBURG",
    "latitude": 49.03,
    "longitude": 12.10,
    "altitude": 365
}, {
    "stationsId": "10777",
    "name": "GELBELSEE",
    "latitude": 48.95,
    "longitude": 11.43,
    "altitude": 539
}, {
    "stationsId": "10782",
    "name": "WALDMUENCHEN",
    "latitude": 49.38,
    "longitude": 12.68,
    "altitude": 499
}, {
    "stationsId": "10788",
    "name": "STRAUBING",
    "latitude": 48.83,
    "longitude": 12.57,
    "altitude": 350
}, {
    "stationsId": "10791",
    "name": "GR.ARBER",
    "latitude": 49.12,
    "longitude": 13.13,
    "altitude": 1446
}, {
    "stationsId": "10796",
    "name": "ZWIESEL",
    "latitude": 49.03,
    "longitude": 13.23,
    "altitude": 612
}, {
    "stationsId": "10803",
    "name": "FREIBURG",
    "latitude": 48.02,
    "longitude": 7.83,
    "altitude": 236
}, {
    "stationsId": "10805",
    "name": "LAHR",
    "latitude": 48.37,
    "longitude": 7.83,
    "altitude": 156
}, {
    "stationsId": "10815",
    "name": "FREUDENST.",
    "latitude": 48.45,
    "longitude": 8.42,
    "altitude": 797
}, {
    "stationsId": "10818",
    "name": "KLIPPENECK",
    "latitude": 48.12,
    "longitude": 8.75,
    "altitude": 973
}, {
    "stationsId": "10827",
    "name": "MESSSTETTEN",
    "latitude": 48.18,
    "longitude": 9.00,
    "altitude": 920
}, {
    "stationsId": "10836",
    "name": "STOETTEN",
    "latitude": 48.67,
    "longitude": 9.87,
    "altitude": 734
}, {
    "stationsId": "10837",
    "name": "LAUPHEIM",
    "latitude": 48.22,
    "longitude": 9.92,
    "altitude": 538
}, {
    "stationsId": "10850",
    "name": "HARBURG",
    "latitude": 48.78,
    "longitude": 10.72,
    "altitude": 502
}, {
    "stationsId": "10852",
    "name": "AUGSBURG",
    "latitude": 48.43,
    "longitude": 10.93,
    "altitude": 463
}, {
    "stationsId": "10853",
    "name": "NEUBURG/DONAU",
    "latitude": 48.72,
    "longitude": 11.22,
    "altitude": 380
}, {
    "stationsId": "10856",
    "name": "LECHFELD",
    "latitude": 48.18,
    "longitude": 10.85,
    "altitude": 555
}, {
    "stationsId": "10857",
    "name": "LANDSBERG",
    "latitude": 48.07,
    "longitude": 10.90,
    "altitude": 623
}, {
    "stationsId": "10860",
    "name": "INGOLSTADT",
    "latitude": 48.72,
    "longitude": 11.53,
    "altitude": 367
}, {
    "stationsId": "10863",
    "name": "WEIHENSTEPHAN",
    "latitude": 48.40,
    "longitude": 11.70,
    "altitude": 470
}, {
    "stationsId": "10865",
    "name": "MUENCHEN STADT",
    "latitude": 48.13,
    "longitude": 11.55,
    "altitude": 520
}, {
    "stationsId": "10870",
    "name": "MUENCHEN-FL.",
    "latitude": 48.37,
    "longitude": 11.80,
    "altitude": 453
}, {
    "stationsId": "10872",
    "name": "GOTTFRIEDING",
    "latitude": 48.67,
    "longitude": 12.53,
    "altitude": 350
}, {
    "stationsId": "10875",
    "name": "MUEHLDORF",
    "latitude": 48.28,
    "longitude": 12.50,
    "altitude": 406
}, {
    "stationsId": "10895",
    "name": "FUERSTENZELL",
    "latitude": 48.55,
    "longitude": 13.35,
    "altitude": 476
}, {
    "stationsId": "10908",
    "name": "FELDBERG/S.",
    "latitude": 47.88,
    "longitude": 8.00,
    "altitude": 1486
}, {
    "stationsId": "10929",
    "name": "KONSTANZ",
    "latitude": 47.68,
    "longitude": 9.18,
    "altitude": 443
}, {
    "stationsId": "10945",
    "name": "LEUTKIRCH-HERLAZHFN.",
    "latitude": 47.80,
    "longitude": 10.03,
    "altitude": 672
}, {
    "stationsId": "10946",
    "name": "KEMPTEN",
    "latitude": 47.72,
    "longitude": 10.33,
    "altitude": 705
}, {
    "stationsId": "10948",
    "name": "OBERSTDORF",
    "latitude": 47.40,
    "longitude": 10.28,
    "altitude": 810
}, {
    "stationsId": "10954",
    "name": "ALTENSTADT",
    "latitude": 47.83,
    "longitude": 10.87,
    "altitude": 739
}, {
    "stationsId": "10961",
    "name": "ZUGSPITZE",
    "latitude": 47.42,
    "longitude": 10.98,
    "altitude": 2960
}, {
    "stationsId": "10962",
    "name": "HOHENPEISS.BG",
    "latitude": 47.80,
    "longitude": 11.02,
    "altitude": 977
}, {
    "stationsId": "10963",
    "name": "GARMISCH",
    "latitude": 47.48,
    "longitude": 11.07,
    "altitude": 719
}, {
    "stationsId": "10982",
    "name": "CHIEMING",
    "latitude": 47.88,
    "longitude": 12.53,
    "altitude": 549
}, {
    "stationsId": "11001",
    "name": "WOLFSEGG",
    "latitude": 48.10,
    "longitude": 13.67,
    "altitude": 660
}, {
    "stationsId": "11008",
    "name": "ROHRBACH",
    "latitude": 48.57,
    "longitude": 14.00,
    "altitude": 602
}, {
    "stationsId": "11010",
    "name": "LINZ FL.",
    "latitude": 48.23,
    "longitude": 14.18,
    "altitude": 298
}, {
    "stationsId": "11012",
    "name": "KREMSMUENSTER",
    "latitude": 48.07,
    "longitude": 14.13,
    "altitude": 382
}, {
    "stationsId": "11018",
    "name": "AMSTETTEN",
    "latitude": 48.12,
    "longitude": 14.90,
    "altitude": 266
}, {
    "stationsId": "11019",
    "name": "ALLENSTEIG",
    "latitude": 48.68,
    "longitude": 15.37,
    "altitude": 599
}, {
    "stationsId": "11020",
    "name": "ZWETTL",
    "latitude": 48.62,
    "longitude": 15.20,
    "altitude": 505
}, {
    "stationsId": "11021",
    "name": "LITSCHAU",
    "latitude": 48.95,
    "longitude": 15.03,
    "altitude": 558
}, {
    "stationsId": "11022",
    "name": "RETZ",
    "latitude": 48.77,
    "longitude": 15.93,
    "altitude": 320
}, {
    "stationsId": "11030",
    "name": "TULLN",
    "latitude": 48.32,
    "longitude": 16.12,
    "altitude": 175
}, {
    "stationsId": "11032",
    "name": "POYSDORF",
    "latitude": 48.67,
    "longitude": 16.63,
    "altitude": 202
}, {
    "stationsId": "11034",
    "name": "WIEN/CITY",
    "latitude": 48.20,
    "longitude": 16.37,
    "altitude": 171
}, {
    "stationsId": "11035",
    "name": "WIEN/HOHE WARTE",
    "latitude": 48.25,
    "longitude": 16.37,
    "altitude": 195
}, {
    "stationsId": "11036",
    "name": "WIEN FL.",
    "latitude": 48.12,
    "longitude": 16.57,
    "altitude": 183
}, {
    "stationsId": "11040",
    "name": "WIEN/UNTERLAA",
    "latitude": 48.13,
    "longitude": 16.42,
    "altitude": 201
}, {
    "stationsId": "11053",
    "name": "RIED IM INNKREIS",
    "latitude": 48.22,
    "longitude": 13.48,
    "altitude": 431
}, {
    "stationsId": "11055",
    "name": "SCHAERDING",
    "latitude": 48.47,
    "longitude": 13.43,
    "altitude": 314
}, {
    "stationsId": "11060",
    "name": "LINZ",
    "latitude": 48.30,
    "longitude": 14.28,
    "altitude": 262
}, {
    "stationsId": "11070",
    "name": "KREMS",
    "latitude": 48.42,
    "longitude": 15.62,
    "altitude": 203
}, {
    "stationsId": "11075",
    "name": "LANGENLOIS",
    "latitude": 48.47,
    "longitude": 15.70,
    "altitude": 204
}, {
    "stationsId": "11078",
    "name": "LILIENFELD/TARSCHBER",
    "latitude": 48.03,
    "longitude": 15.58,
    "altitude": 681
}, {
    "stationsId": "11082",
    "name": "GUMPOLDSKIRCHEN",
    "latitude": 48.03,
    "longitude": 16.28,
    "altitude": 219
}, {
    "stationsId": "11101",
    "name": "BREGENZ",
    "latitude": 47.50,
    "longitude": 9.75,
    "altitude": 424
}, {
    "stationsId": "11105",
    "name": "FELDKIRCH",
    "latitude": 47.27,
    "longitude": 9.62,
    "altitude": 438
}, {
    "stationsId": "11109",
    "name": "ST.ANTON/ARLBERG",
    "latitude": 47.12,
    "longitude": 10.53,
    "altitude": 1275
}, {
    "stationsId": "11110",
    "name": "GALZIG",
    "latitude": 47.13,
    "longitude": 10.23,
    "altitude": 2080
}, {
    "stationsId": "11112",
    "name": "LANDECK",
    "latitude": 47.15,
    "longitude": 10.57,
    "altitude": 785
}, {
    "stationsId": "11116",
    "name": "REUTTE/TIROL",
    "latitude": 47.50,
    "longitude": 10.75,
    "altitude": 870
}, {
    "stationsId": "11120",
    "name": "INNSBRUCK FL.",
    "latitude": 47.27,
    "longitude": 11.35,
    "altitude": 581
}, {
    "stationsId": "11130",
    "name": "KUFSTEIN",
    "latitude": 47.58,
    "longitude": 12.17,
    "altitude": 493
}, {
    "stationsId": "11140",
    "name": "LOFER",
    "latitude": 47.58,
    "longitude": 12.70,
    "altitude": 629
}, {
    "stationsId": "11141",
    "name": "BISCHOFSHOFEN",
    "latitude": 47.40,
    "longitude": 13.22,
    "altitude": 543
}, {
    "stationsId": "11144",
    "name": "ZELL A.SEE",
    "latitude": 47.33,
    "longitude": 12.80,
    "altitude": 766
}, {
    "stationsId": "11146",
    "name": "SONNBLICK",
    "latitude": 47.05,
    "longitude": 12.95,
    "altitude": 3106
}, {
    "stationsId": "11148",
    "name": "ST.MICHAEL/LUNGAU",
    "latitude": 47.10,
    "longitude": 13.65,
    "altitude": 1094
}, {
    "stationsId": "11149",
    "name": "OBERTAUERN",
    "latitude": 47.25,
    "longitude": 13.57,
    "altitude": 1743
}, {
    "stationsId": "11150",
    "name": "SALZBURG FL.",
    "latitude": 47.80,
    "longitude": 13.00,
    "altitude": 430
}, {
    "stationsId": "11154",
    "name": "GMUNDEN",
    "latitude": 47.90,
    "longitude": 13.78,
    "altitude": 424
}, {
    "stationsId": "11157",
    "name": "AIGEN/ENNS",
    "latitude": 47.53,
    "longitude": 14.13,
    "altitude": 638
}, {
    "stationsId": "11165",
    "name": "ZELTWEG",
    "latitude": 47.20,
    "longitude": 14.75,
    "altitude": 677
}, {
    "stationsId": "11170",
    "name": "LUNZ",
    "latitude": 47.85,
    "longitude": 15.07,
    "altitude": 614
}, {
    "stationsId": "11174",
    "name": "ST.MICHAEL",
    "latitude": 47.33,
    "longitude": 15.00,
    "altitude": 580
}, {
    "stationsId": "11182",
    "name": "WIENER NEUSTADT",
    "latitude": 47.83,
    "longitude": 16.22,
    "altitude": 285
}, {
    "stationsId": "11190",
    "name": "EISENSTADT",
    "latitude": 47.85,
    "longitude": 16.53,
    "altitude": 184
}, {
    "stationsId": "11192",
    "name": "KLEINZICKEN",
    "latitude": 47.20,
    "longitude": 16.33,
    "altitude": 267
}, {
    "stationsId": "11194",
    "name": "NEUSIEDL AM SEE",
    "latitude": 47.95,
    "longitude": 16.85,
    "altitude": 135
}, {
    "stationsId": "11201",
    "name": "SILLIAN",
    "latitude": 46.75,
    "longitude": 12.42,
    "altitude": 1081
}, {
    "stationsId": "11204",
    "name": "LIENZ",
    "latitude": 46.83,
    "longitude": 12.80,
    "altitude": 659
}, {
    "stationsId": "11212",
    "name": "VILL.ALPE",
    "latitude": 46.60,
    "longitude": 13.67,
    "altitude": 2140
}, {
    "stationsId": "11213",
    "name": "VILLACH",
    "latitude": 46.62,
    "longitude": 13.87,
    "altitude": 495
}, {
    "stationsId": "11231",
    "name": "KLAGENFURT FL.",
    "latitude": 46.65,
    "longitude": 14.33,
    "altitude": 448
}, {
    "stationsId": "11240",
    "name": "GRAZ FL.",
    "latitude": 47.00,
    "longitude": 15.43,
    "altitude": 340
}, {
    "stationsId": "11248",
    "name": "BAD RADKERSBURG",
    "latitude": 46.68,
    "longitude": 15.98,
    "altitude": 208
}, {
    "stationsId": "11270",
    "name": "DELLACH IM DRAUTAL",
    "latitude": 46.73,
    "longitude": 13.08,
    "altitude": 625
}, {
    "stationsId": "11292",
    "name": "LASSNITZHOEHE",
    "latitude": 47.08,
    "longitude": 15.58,
    "altitude": 524
}, {
    "stationsId": "11308",
    "name": "WARTH",
    "latitude": 47.25,
    "longitude": 10.18,
    "altitude": 1475
}, {
    "stationsId": "11312",
    "name": "GALTUER",
    "latitude": 46.97,
    "longitude": 10.18,
    "altitude": 1584
}, {
    "stationsId": "11350",
    "name": "SALZBURG",
    "latitude": 47.78,
    "longitude": 13.05,
    "altitude": 423
}, {
    "stationsId": "11354",
    "name": "BAD GOISERN",
    "latitude": 47.63,
    "longitude": 13.62,
    "altitude": 502
}, {
    "stationsId": "11355",
    "name": "WINDISCHGARSTEN",
    "latitude": 47.73,
    "longitude": 14.33,
    "altitude": 596
}, {
    "stationsId": "11357",
    "name": "ST. WOLFGANG",
    "latitude": 47.73,
    "longitude": 13.45,
    "altitude": 537
}, {
    "stationsId": "11380",
    "name": "REICHENAU/RAX",
    "latitude": 47.70,
    "longitude": 15.83,
    "altitude": 486
}, {
    "stationsId": "11406",
    "name": "EGER",
    "latitude": 50.07,
    "longitude": 12.38,
    "altitude": 483
}, {
    "stationsId": "11414",
    "name": "KARLSBAD",
    "latitude": 50.20,
    "longitude": 12.92,
    "altitude": 606
}, {
    "stationsId": "11423",
    "name": "PRIMDA",
    "latitude": 49.67,
    "longitude": 12.68,
    "altitude": 743
}, {
    "stationsId": "11438",
    "name": "TUSIMICE",
    "latitude": 50.38,
    "longitude": 13.33,
    "altitude": 322
}, {
    "stationsId": "11450",
    "name": "PLZEN (AUT. STATION)",
    "latitude": 49.75,
    "longitude": 13.35,
    "altitude": 331
}, {
    "stationsId": "11457",
    "name": "CHURANOV",
    "latitude": 49.07,
    "longitude": 13.62,
    "altitude": 1122
}, {
    "stationsId": "11487",
    "name": "KOCELOVICE",
    "latitude": 49.47,
    "longitude": 13.83,
    "altitude": 519
}, {
    "stationsId": "11502",
    "name": "AUSSIG",
    "latitude": 50.68,
    "longitude": 14.03,
    "altitude": 375
}, {
    "stationsId": "11509",
    "name": "DOKSANY",
    "latitude": 50.47,
    "longitude": 14.17,
    "altitude": 158
}, {
    "stationsId": "11518",
    "name": "PRAG FL.",
    "latitude": 50.10,
    "longitude": 14.25,
    "altitude": 380
}, {
    "stationsId": "11520",
    "name": "PRAG",
    "latitude": 50.02,
    "longitude": 14.45,
    "altitude": 304
}, {
    "stationsId": "11538",
    "name": "TEMELIN",
    "latitude": 49.20,
    "longitude": 14.33,
    "altitude": 500
}, {
    "stationsId": "11567",
    "name": "PRAHA (KBELI AIRP.)",
    "latitude": 50.12,
    "longitude": 14.53,
    "altitude": 285
}, {
    "stationsId": "11603",
    "name": "LIBEREC",
    "latitude": 50.77,
    "longitude": 15.02,
    "altitude": 405
}, {
    "stationsId": "11624",
    "name": "CASLAV",
    "latitude": 49.93,
    "longitude": 15.38,
    "altitude": 242
}, {
    "stationsId": "11628",
    "name": "KRAMOLIN-KOSETICE",
    "latitude": 49.58,
    "longitude": 15.08,
    "altitude": 534
}, {
    "stationsId": "11643",
    "name": "PEC POD SNEZKOU",
    "latitude": 50.68,
    "longitude": 15.73,
    "altitude": 816
}, {
    "stationsId": "11652",
    "name": "PARDUBICE",
    "latitude": 50.02,
    "longitude": 15.73,
    "altitude": 225
}, {
    "stationsId": "11659",
    "name": "PRIBYSLAW",
    "latitude": 49.58,
    "longitude": 15.77,
    "altitude": 533
}, {
    "stationsId": "11679",
    "name": "USTI NAD ORLICI",
    "latitude": 49.98,
    "longitude": 16.42,
    "altitude": 402
}, {
    "stationsId": "11683",
    "name": "SVRATOUCH",
    "latitude": 49.73,
    "longitude": 16.03,
    "altitude": 734
}, {
    "stationsId": "11692",
    "name": "NAMEST NAD OSLAVOU",
    "latitude": 49.17,
    "longitude": 16.12,
    "altitude": 473
}, {
    "stationsId": "11693",
    "name": "DUKOVANY",
    "latitude": 49.10,
    "longitude": 16.13,
    "altitude": 400
}, {
    "stationsId": "11698",
    "name": "KUCHAROVICE",
    "latitude": 48.88,
    "longitude": 16.08,
    "altitude": 334
}, {
    "stationsId": "11710",
    "name": "LUKA",
    "latitude": 49.65,
    "longitude": 16.95,
    "altitude": 513
}, {
    "stationsId": "11723",
    "name": "BRUENN",
    "latitude": 49.15,
    "longitude": 16.70,
    "altitude": 238
}, {
    "stationsId": "11774",
    "name": "HOLESOV",
    "latitude": 49.32,
    "longitude": 17.57,
    "altitude": 224
}, {
    "stationsId": "11782",
    "name": "OSTRAVA/MOSNOV",
    "latitude": 49.68,
    "longitude": 18.12,
    "altitude": 257
}, {
    "stationsId": "11787",
    "name": "LYSA HORA/RIESENGEB.",
    "latitude": 49.55,
    "longitude": 18.45,
    "altitude": 1324
}, {
    "stationsId": "11816",
    "name": "BRATISLAVA",
    "latitude": 48.17,
    "longitude": 17.20,
    "altitude": 132
}, {
    "stationsId": "11819",
    "name": "JASLOVSKE BOHUNICE",
    "latitude": 48.48,
    "longitude": 17.67,
    "altitude": 176
}, {
    "stationsId": "11826",
    "name": "PIESTANY",
    "latitude": 48.62,
    "longitude": 17.83,
    "altitude": 164
}, {
    "stationsId": "11855",
    "name": "NITRA",
    "latitude": 48.28,
    "longitude": 18.13,
    "altitude": 135
}, {
    "stationsId": "11856",
    "name": "MOCHOVCE",
    "latitude": 48.28,
    "longitude": 18.45,
    "altitude": 261
}, {
    "stationsId": "11858",
    "name": "HURBANOVO",
    "latitude": 47.87,
    "longitude": 18.20,
    "altitude": 115
}, {
    "stationsId": "11867",
    "name": "PRIEVIDZA",
    "latitude": 48.77,
    "longitude": 18.58,
    "altitude": 260
}, {
    "stationsId": "11880",
    "name": "DUDINCE",
    "latitude": 48.17,
    "longitude": 18.87,
    "altitude": 139
}, {
    "stationsId": "11903",
    "name": "SLIAC",
    "latitude": 48.65,
    "longitude": 19.15,
    "altitude": 314
}, {
    "stationsId": "11927",
    "name": "LUCENEC",
    "latitude": 48.33,
    "longitude": 19.73,
    "altitude": 214
}, {
    "stationsId": "11933",
    "name": "STREBSKE PLESO",
    "latitude": 49.12,
    "longitude": 20.08,
    "altitude": 1354
}, {
    "stationsId": "11934",
    "name": "POPRAD/T.",
    "latitude": 49.07,
    "longitude": 20.25,
    "altitude": 694
}, {
    "stationsId": "11938",
    "name": "TELGART",
    "latitude": 48.85,
    "longitude": 20.18,
    "altitude": 901
}, {
    "stationsId": "11968",
    "name": "KOSICE",
    "latitude": 48.67,
    "longitude": 21.22,
    "altitude": 230
}, {
    "stationsId": "11976",
    "name": "STROPKOV,TISINEC",
    "latitude": 49.22,
    "longitude": 21.65,
    "altitude": 216
}, {
    "stationsId": "11978",
    "name": "MILHOSTOV",
    "latitude": 48.67,
    "longitude": 21.72,
    "altitude": 105
}, {
    "stationsId": "11993",
    "name": "KAMENICA NAD C.",
    "latitude": 48.93,
    "longitude": 22.00,
    "altitude": 176
}, {
    "stationsId": "12105",
    "name": "KOSZALIN",
    "latitude": 54.20,
    "longitude": 16.17,
    "altitude": 33
}, {
    "stationsId": "12120",
    "name": "LEBA",
    "latitude": 54.75,
    "longitude": 17.53,
    "altitude": 2
}, {
    "stationsId": "12135",
    "name": "HEL",
    "latitude": 54.60,
    "longitude": 18.82,
    "altitude": 1
}, {
    "stationsId": "12160",
    "name": "ELBLAG",
    "latitude": 54.17,
    "longitude": 19.43,
    "altitude": 40
}, {
    "stationsId": "12185",
    "name": "KETRZYN",
    "latitude": 54.07,
    "longitude": 21.37,
    "altitude": 107
}, {
    "stationsId": "12195",
    "name": "SUWALKI",
    "latitude": 54.13,
    "longitude": 22.95,
    "altitude": 184
}, {
    "stationsId": "12200",
    "name": "SWINEMUENDE",
    "latitude": 53.92,
    "longitude": 14.23,
    "altitude": 5
}, {
    "stationsId": "12205",
    "name": "STETTIN",
    "latitude": 53.40,
    "longitude": 14.62,
    "altitude": 1
}, {
    "stationsId": "12210",
    "name": "RESKO",
    "latitude": 53.77,
    "longitude": 15.42,
    "altitude": 52
}, {
    "stationsId": "12230",
    "name": "PILA",
    "latitude": 53.13,
    "longitude": 16.75,
    "altitude": 72
}, {
    "stationsId": "12235",
    "name": "CHOJNICE",
    "latitude": 53.70,
    "longitude": 17.55,
    "altitude": 172
}, {
    "stationsId": "12250",
    "name": "TORUN",
    "latitude": 53.03,
    "longitude": 18.58,
    "altitude": 69
}, {
    "stationsId": "12270",
    "name": "MLAWA",
    "latitude": 53.10,
    "longitude": 20.37,
    "altitude": 147
}, {
    "stationsId": "12280",
    "name": "MIKOLAJKI",
    "latitude": 53.78,
    "longitude": 21.58,
    "altitude": 127
}, {
    "stationsId": "12295",
    "name": "BIALYSTOK",
    "latitude": 53.10,
    "longitude": 23.17,
    "altitude": 148
}, {
    "stationsId": "12300",
    "name": "GORZOW WLKP",
    "latitude": 52.73,
    "longitude": 15.28,
    "altitude": 71
}, {
    "stationsId": "12310",
    "name": "SLUBICE",
    "latitude": 52.35,
    "longitude": 14.58,
    "altitude": 21
}, {
    "stationsId": "12330",
    "name": "POSEN",
    "latitude": 52.42,
    "longitude": 16.83,
    "altitude": 86
}, {
    "stationsId": "12345",
    "name": "KOLO",
    "latitude": 52.20,
    "longitude": 18.67,
    "altitude": 115
}, {
    "stationsId": "12360",
    "name": "PLOCK",
    "latitude": 52.58,
    "longitude": 19.73,
    "altitude": 106
}, {
    "stationsId": "12375",
    "name": "WARSCHAU",
    "latitude": 52.17,
    "longitude": 20.97,
    "altitude": 106
}, {
    "stationsId": "12385",
    "name": "SIEDLCE",
    "latitude": 52.25,
    "longitude": 22.25,
    "altitude": 152
}, {
    "stationsId": "12400",
    "name": "ZIELONA GORA",
    "latitude": 51.93,
    "longitude": 15.53,
    "altitude": 192
}, {
    "stationsId": "12415",
    "name": "LEGNICA BARTOSZOW",
    "latitude": 51.18,
    "longitude": 16.22,
    "altitude": 122
}, {
    "stationsId": "12418",
    "name": "LESZNO",
    "latitude": 51.83,
    "longitude": 16.53,
    "altitude": 91
}, {
    "stationsId": "12424",
    "name": "WROCLAW II",
    "latitude": 51.10,
    "longitude": 16.88,
    "altitude": 120
}, {
    "stationsId": "12435",
    "name": "KALISZ",
    "latitude": 51.78,
    "longitude": 18.08,
    "altitude": 137
}, {
    "stationsId": "12455",
    "name": "WIELUN",
    "latitude": 51.22,
    "longitude": 18.57,
    "altitude": 199
}, {
    "stationsId": "12465",
    "name": "LODZ",
    "latitude": 51.73,
    "longitude": 19.40,
    "altitude": 187
}, {
    "stationsId": "12469",
    "name": "SULEJOW",
    "latitude": 51.35,
    "longitude": 19.87,
    "altitude": 188
}, {
    "stationsId": "12488",
    "name": "KOZIENICE",
    "latitude": 51.57,
    "longitude": 21.53,
    "altitude": 123
}, {
    "stationsId": "12495",
    "name": "LUBLIN RADAWIEC",
    "latitude": 51.22,
    "longitude": 22.40,
    "altitude": 238
}, {
    "stationsId": "12500",
    "name": "JELENIA GORA",
    "latitude": 50.90,
    "longitude": 15.80,
    "altitude": 342
}, {
    "stationsId": "12510",
    "name": "SNIEZKA",
    "latitude": 50.73,
    "longitude": 15.73,
    "altitude": 1604
}, {
    "stationsId": "12520",
    "name": "KLODZKO",
    "latitude": 50.43,
    "longitude": 16.62,
    "altitude": 356
}, {
    "stationsId": "12530",
    "name": "OPOLE",
    "latitude": 50.67,
    "longitude": 17.97,
    "altitude": 163
}, {
    "stationsId": "12540",
    "name": "RACIBORZ",
    "latitude": 50.07,
    "longitude": 18.18,
    "altitude": 206
}, {
    "stationsId": "12550",
    "name": "CZESTOCHOWA",
    "latitude": 50.82,
    "longitude": 19.10,
    "altitude": 293
}, {
    "stationsId": "12560",
    "name": "KATOWICE",
    "latitude": 50.23,
    "longitude": 19.03,
    "altitude": 284
}, {
    "stationsId": "12566",
    "name": "KRAKOW",
    "latitude": 50.08,
    "longitude": 19.80,
    "altitude": 237
}, {
    "stationsId": "12570",
    "name": "KIELCE",
    "latitude": 50.82,
    "longitude": 20.70,
    "altitude": 260
}, {
    "stationsId": "12580",
    "name": "RZESZOW-JASIONKA",
    "latitude": 50.10,
    "longitude": 22.05,
    "altitude": 200
}, {
    "stationsId": "12585",
    "name": "SANDOMIERZ",
    "latitude": 50.70,
    "longitude": 21.72,
    "altitude": 217
}, {
    "stationsId": "12600",
    "name": "BIELSKO-BIALA",
    "latitude": 49.80,
    "longitude": 19.00,
    "altitude": 398
}, {
    "stationsId": "12625",
    "name": "ZAKOPANE",
    "latitude": 49.30,
    "longitude": 19.97,
    "altitude": 857
}, {
    "stationsId": "12660",
    "name": "NOWY SACZ",
    "latitude": 49.62,
    "longitude": 20.70,
    "altitude": 292
}, {
    "stationsId": "12690",
    "name": "LESKO",
    "latitude": 49.47,
    "longitude": 22.33,
    "altitude": 420
}, {
    "stationsId": "12766",
    "name": "JOSVAFO",
    "latitude": 48.48,
    "longitude": 20.53,
    "altitude": 305
}, {
    "stationsId": "12772",
    "name": "MISKOLC",
    "latitude": 48.08,
    "longitude": 20.77,
    "altitude": 232
}, {
    "stationsId": "12805",
    "name": "SOPRON",
    "latitude": 47.68,
    "longitude": 16.60,
    "altitude": 233
}, {
    "stationsId": "12815",
    "name": "MOSONMAGYAROVAR",
    "latitude": 47.88,
    "longitude": 17.28,
    "altitude": 121
}, {
    "stationsId": "12822",
    "name": "GYOR",
    "latitude": 47.72,
    "longitude": 17.68,
    "altitude": 116
}, {
    "stationsId": "12830",
    "name": "VESZPREM",
    "latitude": 47.07,
    "longitude": 17.83,
    "altitude": 280
}, {
    "stationsId": "12843",
    "name": "BUDAPEST/LORINC",
    "latitude": 47.43,
    "longitude": 19.18,
    "altitude": 138
}, {
    "stationsId": "12846",
    "name": "AGARD",
    "latitude": 47.18,
    "longitude": 18.62,
    "altitude": 105
}, {
    "stationsId": "12882",
    "name": "DEBRECEN",
    "latitude": 47.48,
    "longitude": 21.60,
    "altitude": 110
}, {
    "stationsId": "12910",
    "name": "SZENTGOTTHARD",
    "latitude": 46.92,
    "longitude": 16.32,
    "altitude": 312
}, {
    "stationsId": "12922",
    "name": "SARMELLEK",
    "latitude": 46.68,
    "longitude": 17.17,
    "altitude": 124
}, {
    "stationsId": "12925",
    "name": "NAGYKANIZSA",
    "latitude": 46.45,
    "longitude": 16.97,
    "altitude": 139
}, {
    "stationsId": "12935",
    "name": "SIOFOK",
    "latitude": 46.92,
    "longitude": 18.05,
    "altitude": 108
}, {
    "stationsId": "12942",
    "name": "PECS/POGANY",
    "latitude": 46.00,
    "longitude": 18.23,
    "altitude": 201
}, {
    "stationsId": "12970",
    "name": "KECSKEMET",
    "latitude": 46.92,
    "longitude": 19.75,
    "altitude": 113
},